{
  "103 Oilfield, Libya": {
    "city": null,
    "state": null,
    "stateCode": null,
    "country": "Libya",
    "countryCode": "LY",
    "coordinates": {
      "latitude": 27.043961,
      "longitude": 18.02328
    },
    "mapboxPlaceName": "Libya",
    "confidence": 0.5
  },
  "AE-ABU DHABI-AL GHAITH HOLDING TOWER, AIRPORT ROAD": {
    "original": "AE-ABU DHABI-AL GHAITH HOLDING TOWER, AIRPORT ROAD",
    "mapboxPlaceName": "Abu Dhabi, United Arab Emirates",
    "city": "Abu Dhabi",
    "state": "Abu Dhabi",
    "stateCode": null,
    "country": "United Arab Emirates",
    "countryCode": "AE",
    "coordinates": {
      "longitude": 54.3773,
      "latitude": 24.4539
    },
    "placeType": [
      "place"
    ],
    "confidence": 1
  },
  "AE-ABU DHABI-AL GHAITH YARD, MUSSAFAH INDUSTRIAL 16th STREET": {
    "original": "AE-ABU DHABI-AL GHAITH YARD, MUSSAFAH INDUSTRIAL 16th STREET",
    "mapboxPlaceName": "شارع 16, Central District, Al Ain, Abu Dhabi, United Arab Emirates",
    "city": "Al Ain",
    "state": "Abu Dhabi",
    "stateCode": "AZ",
    "country": "United Arab Emirates",
    "countryCode": "AE",
    "coordinates": {
      "longitude": 55.788484,
      "latitude": 24.213424
    },
    "placeType": [
      "address"
    ],
    "confidence": 0.538148
  },
  "AE-ABU DHABI-MUSSAFAH ATLAS MW4C BLOCK 10B": {
    "original": "AE-ABU DHABI-MUSSAFAH ATLAS MW4C BLOCK 10B",
    "mapboxPlaceName": "10b شارع, Al Mezhar Second, Dubai, Dubai, United Arab Emirates",
    "city": "Dubai",
    "state": "Dubai",
    "stateCode": "DU",
    "country": "United Arab Emirates",
    "countryCode": "AE",
    "coordinates": {
      "longitude": 55.457407,
      "latitude": 25.241123
    },
    "placeType": [
      "address"
    ],
    "confidence": 0.240741
  },
  "AE-DUBAI-JEBEL ALI-PLOT MO0531, ROAD N302": {
    "original": "AE-DUBAI-JEBEL ALI-PLOT MO0531, ROAD N302",
    "mapboxPlaceName": "Jebel Ali First, Jebel Ali, Dubai, United Arab Emirates",
    "city": "Jebel Ali",
    "state": "Dubai",
    "stateCode": "DU",
    "country": "United Arab Emirates",
    "countryCode": "AE",
    "coordinates": {
      "longitude": 55.131145,
      "latitude": 25.048882
    },
    "placeType": [
      "neighborhood"
    ],
    "confidence": 0.56037
  },
  "AE-DUBAI-TECHNO PARK": {
    "city": "Dubai",
    "state": null,
    "stateCode": null,
    "country": "United Arab Emirates",
    "countryCode": "AE",
    "coordinates": {
      "latitude": 25.2048,
      "longitude": 55.2708
    },
    "mapboxPlaceName": "Dubai, United Arab Emirates",
    "confidence": 0.8
  },
  "AE-Dhabi-Abu Dhabi-Plot No. 424, Mafraq Industrial Area": {
    "original": "AE-Dhabi-Abu Dhabi-Plot No. 424, Mafraq Industrial Area",
    "mapboxPlaceName": "Abu Dhabi, Abu Dhabi, United Arab Emirates",
    "city": "Abu Dhabi",
    "state": "Abu Dhabi",
    "stateCode": "AZ",
    "country": "United Arab Emirates",
    "countryCode": "AE",
    "coordinates": {
      "longitude": 54.377438,
      "latitude": 24.453524
    },
    "placeType": [
      "place"
    ],
    "confidence": 0.366667
  },
  "AO-OTHER ANGOLA": {
    "original": "AO-OTHER ANGOLA",
    "mapboxPlaceName": "Cangola, Uíge, Angola",
    "city": "Cangola",
    "state": "Uíge",
    "stateCode": "UIG",
    "country": "Angola",
    "countryCode": "AO",
    "coordinates": {
      "longitude": 15.851528,
      "latitude": -7.975421
    },
    "placeType": [
      "place"
    ],
    "confidence": 0.628889
  },
  "AR-Bueno Aires-Bueno Aires-Juana Manso Nro. 205, Piso 4, Ciudad Autonoma De": {
    "original": "AR-Bueno Aires-Bueno Aires-Juana Manso Nro. 205, Piso 4, Ciudad Autonoma De",
    "mapboxPlaceName": "Buenos Aires, Argentina",
    "city": "Buenos Aires",
    "state": "Buenos Aires",
    "stateCode": "C",
    "country": "Argentina",
    "countryCode": "AR",
    "coordinates": {
      "longitude": -58.437089,
      "latitude": -34.607568
    },
    "placeType": [
      "region",
      "place"
    ],
    "confidence": 0.487355
  },
  "AR-Mendoza-Lujan de Cuyo - Mza-Acceso Sur y Anchorena": {
    "original": "AR-Mendoza-Lujan de Cuyo - Mza-Acceso Sur y Anchorena",
    "mapboxPlaceName": "Tomás Manuel De Anchorena, Luján de Cuyo, Mendoza, M5507, Argentina",
    "city": "Luján de Cuyo",
    "state": "Mendoza",
    "stateCode": "M",
    "country": "Argentina",
    "countryCode": "AR",
    "coordinates": {
      "longitude": -68.872117,
      "latitude": -33.022466
    },
    "placeType": [
      "address"
    ],
    "confidence": 0.701111
  },
  "AR-NEUQUEN-BENU MUSA 1154": {
    "original": "AR-NEUQUEN-BENU MUSA 1154",
    "mapboxPlaceName": "Benu Musa, Neuquén, Neuquén, Q8304, Argentina",
    "city": "Neuquén",
    "state": "Neuquén",
    "stateCode": "Q",
    "country": "Argentina",
    "countryCode": "AR",
    "coordinates": {
      "longitude": -68.079682,
      "latitude": -38.903195
    },
    "placeType": [
      "address"
    ],
    "confidence": 0.772222
  },
  "AT-OTHER AUSTRIA": {
    "original": "AT-OTHER AUSTRIA",
    "mapboxPlaceName": "Austria Tabakstraße, 2410 Hainburg a.d. Donau, Austria",
    "city": "Hainburg a.d. Donau",
    "state": "Lower Austria",
    "stateCode": "3",
    "country": "Austria",
    "countryCode": "AT",
    "coordinates": {
      "longitude": 16.952432,
      "latitude": 48.141687
    },
    "placeType": [
      "address"
    ],
    "confidence": 0.656667
  },
  "AU-NT-OTHER NORTHERN TERRITORY": {
    "original": "AU-NT-OTHER NORTHERN TERRITORY",
    "mapboxPlaceName": "Territory Grape Property Access, Anmatjere Northern Territory 0872, Australia",
    "city": "Anmatjere",
    "state": "Northern Territory",
    "stateCode": "NT",
    "country": "Australia",
    "countryCode": "AU",
    "coordinates": {
      "longitude": 133.477755,
      "latitude": -22.50646
    },
    "placeType": [
      "address"
    ],
    "confidence": 0.673333
  },
  "AU-SA-MOOMBA-MOOMBA GAS FIELD": {
    "original": "AU-SA-MOOMBA-MOOMBA GAS FIELD",
    "mapboxPlaceName": "Field, South Australia, Australia",
    "city": "Field",
    "state": "South Australia",
    "stateCode": "SA",
    "country": "Australia",
    "countryCode": "AU",
    "coordinates": {
      "longitude": 139.64374,
      "latitude": -35.793602
    },
    "placeType": [
      "place"
    ],
    "confidence": 0.628889
  },
  "AU-WA-JANDAKOT-631 KAREL AVENUE": {
    "original": "AU-WA-JANDAKOT-631 KAREL AVENUE",
    "mapboxPlaceName": "631 Karel Avenue, Jandakot Western Australia 6164, Australia",
    "city": "Perth",
    "state": "Western Australia",
    "stateCode": "WA",
    "country": "Australia",
    "countryCode": "AU",
    "coordinates": {
      "longitude": 115.871237,
      "latitude": -32.09136
    },
    "placeType": [
      "address"
    ],
    "confidence": 0.99
  },
  "AU-WA-OTHER WESTERN AUSTRALIA": {
    "original": "AU-WA-OTHER WESTERN AUSTRALIA",
    "mapboxPlaceName": "Spring Road, Roleystone Western Australia 6111, Australia",
    "city": "Perth",
    "state": "Western Australia",
    "stateCode": "WA",
    "country": "Australia",
    "countryCode": "AU",
    "coordinates": {
      "longitude": 116.068726,
      "latitude": -32.106357
    },
    "placeType": [
      "address"
    ],
    "confidence": 0.698889
  },
  "AU-WA-PERTH-LEVEL 14 216 ST GEORGES TERRACE": {
    "original": "AU-WA-PERTH-LEVEL 14 216 ST GEORGES TERRACE",
    "mapboxPlaceName": "216 Saint Georges Terrace, Perth Western Australia 6000, Australia",
    "city": "Perth",
    "state": "Western Australia",
    "stateCode": "WA",
    "country": "Australia",
    "countryCode": "AU",
    "coordinates": {
      "longitude": 115.852766,
      "latitude": -31.952976
    },
    "placeType": [
      "address"
    ],
    "confidence": 0.99
  },
  "AU-WA-WELSHPOOL-108 POOLE STREET": {
    "original": "AU-WA-WELSHPOOL-108 POOLE STREET",
    "mapboxPlaceName": "108 Poole Street, Welshpool Western Australia 6106, Australia",
    "city": "Perth",
    "state": "Western Australia",
    "stateCode": "WA",
    "country": "Australia",
    "countryCode": "AU",
    "coordinates": {
      "longitude": 115.954112,
      "latitude": -31.993642
    },
    "placeType": [
      "address"
    ],
    "confidence": 0.99
  },
  "AUS, Garden Island Defence Precinct, AUS, Sydney, Cowper Wharf Road, Woolloomooloo, New South Wales": {
    "original": "AUS, Garden Island Defence Precinct, AUS, Sydney, Cowper Wharf Road, Woolloomooloo, New South Wales",
    "mapboxPlaceName": "Wharf Road, Birchgrove New South Wales 2041, Australia",
    "city": "Sydney",
    "state": "New South Wales",
    "stateCode": "NSW",
    "country": "Australia",
    "countryCode": "AU",
    "coordinates": {
      "longitude": 151.18583,
      "latitude": -33.851334
    },
    "placeType": [
      "address"
    ],
    "confidence": 0.666667
  },
  "AUS, Sydney, 320 Pitt Street, New South Wales": {
    "original": "AUS, Sydney, 320 Pitt Street, New South Wales",
    "mapboxPlaceName": "320 Pitt Street, Sydney New South Wales 2000, Australia",
    "city": "Sydney",
    "state": "New South Wales",
    "stateCode": "NSW",
    "country": "Australia",
    "countryCode": "AU",
    "coordinates": {
      "longitude": 151.208232,
      "latitude": -33.875589
    },
    "placeType": [
      "address"
    ],
    "confidence": 0.837222
  },
  "AZ-BAKU-17 SALYAN HIGHWAY": {
    "original": "AZ-BAKU-17 SALYAN HIGHWAY",
    "mapboxPlaceName": "Baku, Azerbaijan",
    "city": "Baku",
    "state": "Baku",
    "stateCode": "BA",
    "country": "Azerbaijan",
    "countryCode": "AZ",
    "coordinates": {
      "longitude": 49.832801,
      "latitude": 40.375589
    },
    "placeType": [
      "region",
      "place"
    ],
    "confidence": 0.538148
  },
  "AZ-BAKU-ABSERON-SALYAN HIGHWAY 22 KM": {
    "original": "AZ-BAKU-ABSERON-SALYAN HIGHWAY 22 KM",
    "mapboxPlaceName": "Baku, Azerbaijan",
    "city": "Baku",
    "state": "Baku",
    "stateCode": "BA",
    "country": "Azerbaijan",
    "countryCode": "AZ",
    "coordinates": {
      "longitude": 49.832801,
      "latitude": 40.375589
    },
    "placeType": [
      "region",
      "place"
    ],
    "confidence": 0.487354
  },
  "AZ-Baku-Baku-15th Km of the Baku-Salyan Highway, 1F, Garadag District": {
    "city": "Baku",
    "state": null,
    "stateCode": null,
    "country": "Azerbaijan",
    "countryCode": "AZ",
    "coordinates": {
      "latitude": 40.4093,
      "longitude": 49.8671
    },
    "mapboxPlaceName": "Baku, Azerbaijan",
    "confidence": 0.8
  },
  "AZ-OTHER AZERBAIJAN": {
    "city": null,
    "state": null,
    "stateCode": null,
    "country": "Azerbaijan",
    "countryCode": "AZ",
    "coordinates": {
      "latitude": 40.4093,
      "longitude": 49.8671
    },
    "mapboxPlaceName": "Azerbaijan, Azerbaijan",
    "confidence": 0.8
  },
  "Aberdeen": {
    "original": "Aberdeen",
    "mapboxPlaceName": "Aberdeen, Scotland, United Kingdom",
    "city": "Aberdeen",
    "state": "Scotland",
    "stateCode": null,
    "country": "United Kingdom",
    "countryCode": "GB",
    "coordinates": {
      "longitude": -2.0943,
      "latitude": 57.1497
    },
    "placeType": [
      "place"
    ],
    "confidence": 1
  },
  "Aberdeen (Westhill), GB": {
    "original": "Aberdeen (Westhill), GB",
    "mapboxPlaceName": "Aberdeen, Aberdeen City, Scotland, United Kingdom",
    "city": "Aberdeen",
    "state": "Scotland",
    "stateCode": "SCT",
    "country": "United Kingdom",
    "countryCode": "GB",
    "coordinates": {
      "longitude": -2.092809,
      "latitude": 57.148243
    },
    "placeType": [
      "place"
    ],
    "confidence": 0.666667
  },
  "Aberdeen (Westhill), GB Lisbon, PT Paris, FR Leer, DE STAVANGER, NO Dubai, AE OSLO, NO London (Sutton), GB Zoetermeer, NL": {
    "original": "Aberdeen (Westhill), GB Lisbon, PT Paris, FR Leer, DE STAVANGER, NO Dubai, AE OSLO, NO London (Sutton), GB Zoetermeer, NL",
    "mapboxPlaceName": "Paris, France",
    "city": "Paris",
    "state": "Paris",
    "stateCode": "75",
    "country": "France",
    "countryCode": "FR",
    "coordinates": {
      "longitude": 2.348392,
      "latitude": 48.853495
    },
    "placeType": [
      "region",
      "place"
    ],
    "confidence": 0.414815
  },
  "Aberdeen Proving Ground, Maryland": {
    "original": "Aberdeen Proving Ground, Maryland",
    "mapboxPlaceName": "Aberdeen Proving Ground, Maryland, United States",
    "city": "Aberdeen Proving Ground",
    "state": "Maryland",
    "stateCode": "MD",
    "country": "United States",
    "countryCode": "US",
    "coordinates": {
      "longitude": -76.140516,
      "latitude": 39.484141
    },
    "placeType": [
      "place"
    ],
    "confidence": 1
  },
  "Aberdeen, GB": {
    "city": "Aberdeen",
    "state": "Scotland",
    "stateCode": "SCT",
    "country": "United Kingdom",
    "countryCode": "GB",
    "coordinates": {
      "latitude": 57.148243,
      "longitude": -2.092809
    },
    "mapboxPlaceName": "Aberdeen, Aberdeen City, Scotland, United Kingdom",
    "confidence": 1
  },
  "Aberdeen, GB +1 more…": {
    "city": "Aberdeen",
    "state": "Scotland",
    "stateCode": "SCT",
    "country": "United Kingdom",
    "countryCode": "GB",
    "coordinates": {
      "latitude": 57.148243,
      "longitude": -2.092809
    },
    "mapboxPlaceName": "Aberdeen, Aberdeen City, Scotland, United Kingdom",
    "confidence": 1
  },
  "Aberdeen, GB +2 more…": {
    "city": "Aberdeen",
    "state": "Scotland",
    "stateCode": "SCT",
    "country": "United Kingdom",
    "countryCode": "GB",
    "coordinates": {
      "latitude": 57.148243,
      "longitude": -2.092809
    },
    "mapboxPlaceName": "Aberdeen, Aberdeen City, Scotland, United Kingdom",
    "confidence": 1
  },
  "Aberdeen, Scotland": {
    "original": "Aberdeen, Scotland",
    "mapboxPlaceName": "Aberdeen, Aberdeen City, Scotland, United Kingdom",
    "city": "Aberdeen",
    "state": "Scotland",
    "stateCode": "SCT",
    "country": "United Kingdom",
    "countryCode": "GB",
    "coordinates": {
      "longitude": -2.092809,
      "latitude": 57.148243
    },
    "placeType": [
      "place"
    ],
    "confidence": 1
  },
  "Abidjan, Abidjan": {
    "original": "Abidjan, Abidjan",
    "mapboxPlaceName": "Abidjan, Côte d'Ivoire",
    "city": "Abidjan",
    "state": "Abidjan",
    "stateCode": "AB",
    "country": "Côte d'Ivoire",
    "countryCode": "CI",
    "coordinates": {
      "longitude": -4.016107,
      "latitude": 5.320357
    },
    "placeType": [
      "region",
      "place"
    ],
    "confidence": 0.5
  },
  "Abingdon, Oxfordshire, England": {
    "original": "Abingdon, Oxfordshire, England",
    "mapboxPlaceName": "Abingdon, Oxfordshire, England, United Kingdom",
    "city": "Abingdon",
    "state": "England",
    "stateCode": "ENG",
    "country": "United Kingdom",
    "countryCode": "GB",
    "coordinates": {
      "longitude": -1.281304,
      "latitude": 51.670166
    },
    "placeType": [
      "place"
    ],
    "confidence": 1
  },
  "Abu Dhabi City, Abu Dhabi, United Arab Emirates": {
    "city": "Abu Dhabi",
    "state": "Abu Dhabi",
    "stateCode": "AZ",
    "country": "United Arab Emirates",
    "countryCode": "AE",
    "coordinates": {
      "latitude": 24.453524,
      "longitude": 54.377438
    },
    "mapboxPlaceName": "Abu Dhabi, Abu Dhabi, United Arab Emirates",
    "confidence": 0.805556
  },
  "Abu Dhabi, AE": {
    "city": "Al Ain",
    "state": "Abu Dhabi",
    "stateCode": "AZ",
    "country": "United Arab Emirates",
    "countryCode": "AE",
    "coordinates": {
      "latitude": 24.078682,
      "longitude": 55.664895
    },
    "mapboxPlaceName": "أبو ظبي - العين تروك رود, Ain Al Fayda, Al Ain, Abu Dhabi, United Arab Emirates",
    "confidence": 0.958333
  },
  "Abu Dhabi, Abu Dhabi Emirate": {
    "original": "Abu Dhabi, Abu Dhabi Emirate",
    "mapboxPlaceName": "Abu Dhabi, Abu Dhabi, United Arab Emirates",
    "city": "Abu Dhabi",
    "state": "Abu Dhabi",
    "stateCode": "AZ",
    "country": "United Arab Emirates",
    "countryCode": "AE",
    "coordinates": {
      "longitude": 54.377438,
      "latitude": 24.453524
    },
    "placeType": [
      "place"
    ],
    "confidence": 0.989037
  },
  "Abu Dhabi, United Arab Emirates": {
    "original": "Abu Dhabi, United Arab Emirates",
    "mapboxPlaceName": "Abu Dhabi, Abu Dhabi, United Arab Emirates",
    "city": "Abu Dhabi",
    "state": "Abu Dhabi",
    "stateCode": "AZ",
    "country": "United Arab Emirates",
    "countryCode": "AE",
    "coordinates": {
      "longitude": 54.377438,
      "latitude": 24.453524
    },
    "placeType": [
      "place"
    ],
    "confidence": 1
  },
  "Ad Dawhah, Qatar": {
    "original": "Ad Dawhah, Qatar",
    "mapboxPlaceName": "Doha, Qatar",
    "city": "Doha",
    "state": "Doha",
    "stateCode": "DA",
    "country": "Qatar",
    "countryCode": "QA",
    "coordinates": {
      "longitude": 51.526416,
      "latitude": 25.285633
    },
    "placeType": [
      "region",
      "place"
    ],
    "confidence": 0.977037
  },
  "Addison, United States": {
    "city": "Addison",
    "state": "Texas",
    "stateCode": "TX",
    "country": "United States",
    "countryCode": "US",
    "coordinates": {
      "latitude": 32.961478,
      "longitude": -96.829861
    },
    "mapboxPlaceName": "Addison, Texas, United States",
    "confidence": 1
  },
  "Adelaide, South Australia, Australia": {
    "original": "Adelaide, South Australia, Australia",
    "mapboxPlaceName": "Adelaide, South Australia, Australia",
    "city": "Adelaide",
    "state": "South Australia",
    "stateCode": "SA",
    "country": "Australia",
    "countryCode": "AU",
    "coordinates": {
      "longitude": 138.59955,
      "latitude": -34.924446
    },
    "placeType": [
      "place"
    ],
    "confidence": 1
  },
  "Ahmadi, Al Ahmadi, Kuwait": {
    "city": "مدينة الاحمدي",
    "state": "Al Ahmadi",
    "stateCode": "AH",
    "country": "Kuwait",
    "countryCode": "KW",
    "coordinates": {
      "latitude": 29.08657,
      "longitude": 48.073757
    },
    "mapboxPlaceName": "مدينة الاحمدي, Al Ahmadi, Kuwait",
    "confidence": 1
  },
  "Ahmadi, Kuwait": {
    "city": "مدينة الاحمدي",
    "state": "Al Ahmadi",
    "stateCode": "AH",
    "country": "Kuwait",
    "countryCode": "KW",
    "coordinates": {
      "latitude": 29.08657,
      "longitude": 48.073757
    },
    "mapboxPlaceName": "مدينة الاحمدي, Al Ahmadi, Kuwait",
    "confidence": 1
  },
  "Aktau, Mangistauskaya Oblast’": {
    "original": "Aktau, Mangistauskaya Oblast’",
    "mapboxPlaceName": "Актау, Mangystau, Kazakhstan",
    "city": "Актау",
    "state": "Mangystau",
    "stateCode": "47",
    "country": "Kazakhstan",
    "countryCode": "KZ",
    "coordinates": {
      "longitude": 51.347682,
      "latitude": 43.551627
    },
    "placeType": [
      "place"
    ],
    "confidence": 0.65
  },
  "Al Khobar, Eastern Province, Saudi Arabia": {
    "city": "Al Khubar",
    "state": "Eastern",
    "stateCode": "04",
    "country": "Saudi Arabia",
    "countryCode": "SA",
    "coordinates": {
      "latitude": 26.289223,
      "longitude": 50.21324
    },
    "mapboxPlaceName": "Al Khubar, Eastern, Saudi Arabia",
    "confidence": 0.986667
  },
  "Al Khobar, Saudi Arabia": {
    "original": "Al Khobar, Saudi Arabia",
    "mapboxPlaceName": "Al-Khobar, Yanbu, Medina, Saudi Arabia",
    "city": "Yanbu",
    "state": "Medina",
    "stateCode": "03",
    "country": "Saudi Arabia",
    "countryCode": "SA",
    "coordinates": {
      "longitude": 38.178056,
      "latitude": 24.015159
    },
    "placeType": [
      "address"
    ],
    "confidence": 1
  },
  "Al-Jubail, Saudi Arabia": {
    "original": "Al-Jubail, Saudi Arabia",
    "mapboxPlaceName": "Al-Jubail, Yanbu, Medina, Saudi Arabia",
    "city": "Yanbu",
    "state": "Medina",
    "stateCode": "03",
    "country": "Saudi Arabia",
    "countryCode": "SA",
    "coordinates": {
      "longitude": 38.17724,
      "latitude": 24.017602
    },
    "placeType": [
      "address"
    ],
    "confidence": 1
  },
  "Al-Kharj, Saudi Arabia": {
    "original": "Al-Kharj, Saudi Arabia",
    "mapboxPlaceName": "Al Kharj, Riyadh, Saudi Arabia",
    "city": "Al Kharj",
    "state": "Riyadh",
    "stateCode": "01",
    "country": "Saudi Arabia",
    "countryCode": "SA",
    "coordinates": {
      "longitude": 47.32474,
      "latitude": 24.157621
    },
    "placeType": [
      "place"
    ],
    "confidence": 1
  },
  "Al-Khobar, Saudi Arabia": {
    "city": "Yanbu",
    "state": "Medina",
    "stateCode": "03",
    "country": "Saudi Arabia",
    "countryCode": "SA",
    "coordinates": {
      "latitude": 24.015159,
      "longitude": 38.178056
    },
    "mapboxPlaceName": "Al-Khobar, Yanbu, Medina, Saudi Arabia",
    "confidence": 1
  },
  "Albert Lea, Minnesota, United States of America": {
    "city": "Albert Lea",
    "state": "Minnesota",
    "stateCode": "MN",
    "country": "United States",
    "countryCode": "US",
    "coordinates": {
      "latitude": 43.647782,
      "longitude": -93.368713
    },
    "mapboxPlaceName": "Albert Lea, Minnesota, United States",
    "confidence": 1
  },
  "Albuquerque, New Mexico": {
    "original": "Albuquerque, New Mexico",
    "mapboxPlaceName": "Albuquerque, New Mexico, United States",
    "city": "Albuquerque",
    "state": "New Mexico",
    "stateCode": "NM",
    "country": "United States",
    "countryCode": "US",
    "coordinates": {
      "longitude": -106.650945,
      "latitude": 35.088192
    },
    "placeType": [
      "place"
    ],
    "confidence": 1
  },
  "Alexandria, Virginia": {
    "original": "Alexandria, Virginia",
    "mapboxPlaceName": "Alexandria, Virginia, United States",
    "city": "Alexandria",
    "state": "Virginia",
    "stateCode": "VA",
    "country": "United States",
    "countryCode": "US",
    "coordinates": {
      "longitude": -77.043624,
      "latitude": 38.80463
    },
    "placeType": [
      "place"
    ],
    "confidence": 1
  },
  "Algiers, Algeria": {
    "city": "Algiers",
    "state": "Algiers",
    "stateCode": "16",
    "country": "Algeria",
    "countryCode": "DZ",
    "coordinates": {
      "latitude": 36.775361,
      "longitude": 3.060188
    },
    "mapboxPlaceName": "Algiers, Algeria",
    "confidence": 1
  },
  "Alice Springs, Northern Territory, Australia": {
    "original": "Alice Springs, Northern Territory, Australia",
    "mapboxPlaceName": "Alice Springs, Northern Territory, Australia",
    "city": "Alice Springs",
    "state": "Northern Territory",
    "stateCode": "NT",
    "country": "Australia",
    "countryCode": "AU",
    "coordinates": {
      "longitude": 133.88222,
      "latitude": -23.700891
    },
    "placeType": [
      "place"
    ],
    "confidence": 1
  },
  "Alvarado, TX": {
    "original": "Alvarado, TX",
    "mapboxPlaceName": "Alvarado, Texas, United States",
    "city": "Alvarado",
    "state": "Texas",
    "stateCode": "TX",
    "country": "United States",
    "countryCode": "US",
    "coordinates": {
      "longitude": -97.210213,
      "latitude": 32.406898
    },
    "placeType": [
      "place"
    ],
    "confidence": 1
  },
  "Ames, Iowa, United States of America": {
    "city": "Ames",
    "state": "Iowa",
    "stateCode": "IA",
    "country": "United States",
    "countryCode": "US",
    "coordinates": {
      "latitude": 42.026896,
      "longitude": -93.615413
    },
    "mapboxPlaceName": "Ames, Iowa, United States",
    "confidence": 1
  },
  "Anacortes WA Refinery": {
    "city": "Anacortes",
    "state": "Washington",
    "stateCode": "WA",
    "country": "United States",
    "countryCode": "US",
    "coordinates": {
      "latitude": 48.51747,
      "longitude": -122.610993
    },
    "mapboxPlaceName": "Anacortes, Washington, United States",
    "confidence": 1
  },
  "Anacortes, Washington": {
    "city": "Anacortes",
    "state": "Washington",
    "stateCode": "WA",
    "country": "United States",
    "countryCode": "US",
    "coordinates": {
      "latitude": 48.51747,
      "longitude": -122.610993
    },
    "mapboxPlaceName": "Anacortes, Washington, United States",
    "confidence": 1
  },
  "Anchorage, AK": {
    "city": "Anchorage",
    "state": "Alaska",
    "stateCode": "AK",
    "country": "United States",
    "countryCode": "US",
    "coordinates": {
      "latitude": 61.216563,
      "longitude": -149.893442
    },
    "mapboxPlaceName": "Anchorage, Alaska, United States",
    "confidence": 1
  },
  "Ankara, TR": {
    "original": "Ankara, TR",
    "mapboxPlaceName": "Ankara, Türkiye",
    "city": "Ankara",
    "state": "Ankara",
    "stateCode": "06",
    "country": "Türkiye",
    "countryCode": "TR",
    "coordinates": {
      "longitude": 32.854048,
      "latitude": 39.920789
    },
    "placeType": [
      "place"
    ],
    "confidence": 1
  },
  "Ann Arbor, Michigan": {
    "original": "Ann Arbor, Michigan",
    "mapboxPlaceName": "Ann Arbor, Michigan, United States",
    "city": "Ann Arbor",
    "state": "Michigan",
    "stateCode": "MI",
    "country": "United States",
    "countryCode": "US",
    "coordinates": {
      "longitude": -83.748499,
      "latitude": 42.281424
    },
    "placeType": [
      "place"
    ],
    "confidence": 1
  },
  "Aracaju, Brazil": {
    "city": "Aracaju",
    "state": "Sergipe",
    "stateCode": "SE",
    "country": "Brazil",
    "countryCode": "BR",
    "coordinates": {
      "latitude": -10.915655,
      "longitude": -37.078403
    },
    "mapboxPlaceName": "Aracaju, Sergipe, Brazil",
    "confidence": 1
  },
  "Arbroath, Scotland": {
    "original": "Arbroath, Scotland",
    "mapboxPlaceName": "Arbroath, Angus, Scotland, United Kingdom",
    "city": "Arbroath",
    "state": "Scotland",
    "stateCode": "SCT",
    "country": "United Kingdom",
    "countryCode": "GB",
    "coordinates": {
      "longitude": -2.582162,
      "latitude": 56.558743
    },
    "placeType": [
      "place"
    ],
    "confidence": 1
  },
  "Argentina": {
    "original": "Argentina",
    "mapboxPlaceName": "Argentina",
    "city": null,
    "state": null,
    "stateCode": null,
    "country": "Argentina",
    "countryCode": "AR",
    "coordinates": {
      "longitude": -63.954193,
      "latitude": -36.252002
    },
    "placeType": [
      "country"
    ],
    "confidence": 1
  },
  "Aricestii-Rahtivani, Romania": {
    "city": "Ariceștii Rahtivani",
    "state": "Prahova",
    "stateCode": "PH",
    "country": "Romania",
    "countryCode": "RO",
    "coordinates": {
      "latitude": 44.943974,
      "longitude": 25.839268
    },
    "mapboxPlaceName": "Ariceștii Rahtivani, Prahova, Romania",
    "confidence": 1
  },
  "Arlington, Virginia": {
    "original": "Arlington, Virginia",
    "mapboxPlaceName": "Arlington, Virginia, United States",
    "city": "Arlington",
    "state": "Virginia",
    "stateCode": "VA",
    "country": "United States",
    "countryCode": "US",
    "coordinates": {
      "longitude": -77.091601,
      "latitude": 38.888414
    },
    "placeType": [
      "place"
    ],
    "confidence": 1
  },
  "Ashkelon, Southern District, Israel": {
    "city": "Ashkelon",
    "state": "Southern District",
    "stateCode": "D",
    "country": "Israel",
    "countryCode": "IL",
    "coordinates": {
      "latitude": 31.66548,
      "longitude": 34.58687
    },
    "mapboxPlaceName": "Ashkelon, Southern District, Israel",
    "confidence": 1
  },
  "Atyrau, Atyraū Oblysy": {
    "original": "Atyrau, Atyraū Oblysy",
    "mapboxPlaceName": "Atarau Road, Atarau, Blackball 7871, New Zealand",
    "city": "Blackball",
    "state": "West Coast",
    "stateCode": "WTC",
    "country": "New Zealand",
    "countryCode": "NZ",
    "coordinates": {
      "longitude": 171.539828,
      "latitude": -42.317751
    },
    "placeType": [
      "address"
    ],
    "confidence": 0.55
  },
  "Auckland, Auckland Region, New Zealand": {
    "city": "Auckland",
    "state": "Auckland",
    "stateCode": "AUK",
    "country": "New Zealand",
    "countryCode": "NZ",
    "coordinates": {
      "latitude": -36.846996,
      "longitude": 174.76591
    },
    "mapboxPlaceName": "Auckland, Auckland, New Zealand",
    "confidence": 0.985481
  },
  "Austin, Texas": {
    "original": "Austin, Texas",
    "mapboxPlaceName": "Austin, Texas, United States",
    "city": "Austin",
    "state": "Texas",
    "stateCode": "TX",
    "country": "United States",
    "countryCode": "US",
    "coordinates": {
      "longitude": -97.742806,
      "latitude": 30.268072
    },
    "placeType": [
      "place"
    ],
    "confidence": 1
  },
  "Ayala, Makati City, Philippines": {
    "city": "Makati",
    "state": null,
    "stateCode": null,
    "country": "Philippines",
    "countryCode": "PH",
    "coordinates": {
      "latitude": 14.556027,
      "longitude": 121.022116
    },
    "mapboxPlaceName": "Ayala Avenue San Lorenzo, Makati, Philippines",
    "confidence": 0.940741
  },
  "BE-OTHER BELGIUM": {
    "original": "BE-OTHER BELGIUM",
    "mapboxPlaceName": "Othee, Awans, Liege, Belgium",
    "city": "Othee",
    "state": "Liege",
    "stateCode": "WLG",
    "country": "Belgium",
    "countryCode": "BE",
    "coordinates": {
      "longitude": 5.467177,
      "latitude": 50.716114
    },
    "placeType": [
      "locality"
    ],
    "confidence": 0.633333
  },
  "BN-KUALA BELAIT-JALAN MUMONG KUALA BALAI LOT 26": {
    "original": "BN-KUALA BELAIT-JALAN MUMONG KUALA BALAI LOT 26",
    "mapboxPlaceName": "Kuala Balai, Belait, Brunei",
    "city": "Kuala Balai",
    "state": "Belait",
    "stateCode": "BE",
    "country": "Brunei",
    "countryCode": "BN",
    "coordinates": {
      "longitude": 114.35583,
      "latitude": 4.44761
    },
    "placeType": [
      "place"
    ],
    "confidence": 0.604198
  },
  "BN-OTHER BRUNEI": {
    "original": "BN-OTHER BRUNEI",
    "mapboxPlaceName": "Brunei-Muara, Brunei",
    "city": null,
    "state": "Brunei-Muara",
    "stateCode": "BM",
    "country": "Brunei",
    "countryCode": "BN",
    "coordinates": {
      "longitude": 114.941917,
      "latitude": 4.96741
    },
    "placeType": [
      "region"
    ],
    "confidence": 0.656667
  },
  "BR-BA-CATU-RUA JOSE VISCO S/N": {
    "original": "BR-BA-CATU-RUA JOSE VISCO S/N",
    "mapboxPlaceName": "Catu, Bahia, Brazil",
    "city": "Catu",
    "state": "Bahia",
    "stateCode": "BA",
    "country": "Brazil",
    "countryCode": "BR",
    "coordinates": {
      "longitude": -38.376232,
      "latitude": -12.352513
    },
    "placeType": [
      "place"
    ],
    "confidence": 0.573333
  },
  "BR-OTHER BRAZIL": {
    "original": "BR-OTHER BRAZIL",
    "mapboxPlaceName": "B, Ponta Porã, Mato Grosso do Sul, Brazil",
    "city": "Ponta Porã",
    "state": "Mato Grosso do Sul",
    "stateCode": "MS",
    "country": "Brazil",
    "countryCode": "BR",
    "coordinates": {
      "longitude": -55.68964,
      "latitude": -22.56636
    },
    "placeType": [
      "neighborhood"
    ],
    "confidence": 0.666667
  },
  "BR-RJ-MACAE-BELA VISTA-AREA 19, 1600": {
    "original": "BR-RJ-MACAE-BELA VISTA-AREA 19, 1600",
    "mapboxPlaceName": "Macaé, Rio de Janeiro, Brazil",
    "city": "Macaé",
    "state": "Rio de Janeiro",
    "stateCode": "RJ",
    "country": "Brazil",
    "countryCode": "BR",
    "coordinates": {
      "longitude": -41.778446,
      "latitude": -22.375927
    },
    "placeType": [
      "place"
    ],
    "confidence": 0.573333
  },
  "BR-RJ-MACAE-ESTR SAO JOSE DO MUTUM 200 (VALE ENCANTADO)": {
    "original": "BR-RJ-MACAE-ESTR SAO JOSE DO MUTUM 200 (VALE ENCANTADO)",
    "mapboxPlaceName": "Vale Encantado, 27933, Macaé, Rio de Janeiro, Brazil",
    "city": "Macaé",
    "state": "Rio de Janeiro",
    "stateCode": "RJ",
    "country": "Brazil",
    "countryCode": "BR",
    "coordinates": {
      "longitude": -41.823658,
      "latitude": -22.384277
    },
    "placeType": [
      "neighborhood"
    ],
    "confidence": 0.636465
  },
  "BR-RJ-MACAE-ESTRADA DE FAZENDA SAO JOSE DO MUTUM 200": {
    "original": "BR-RJ-MACAE-ESTRADA DE FAZENDA SAO JOSE DO MUTUM 200",
    "mapboxPlaceName": "Estrada Fazenda São José Do Mutum 200, Lagoa, Macaé - Rio de Janeiro, 27910-000, Brazil",
    "city": "Macaé",
    "state": "Rio de Janeiro",
    "stateCode": "RJ",
    "country": "Brazil",
    "countryCode": "BR",
    "coordinates": {
      "longitude": -41.829059,
      "latitude": -22.403746
    },
    "placeType": [
      "address"
    ],
    "confidence": 0.798081
  },
  "BR-RJ-MACAE-LAGOMAR-AV ARAXA 240": {
    "original": "BR-RJ-MACAE-LAGOMAR-AV ARAXA 240",
    "mapboxPlaceName": "Avenida Araxá, Lagomar, Macaé - Rio de Janeiro, 27966, Brazil",
    "city": "Macaé",
    "state": "Rio de Janeiro",
    "stateCode": "RJ",
    "country": "Brazil",
    "countryCode": "BR",
    "coordinates": {
      "longitude": -41.720969,
      "latitude": -22.311614
    },
    "placeType": [
      "address"
    ],
    "confidence": 0.833915
  },
  "BR-RJ-NITEROI-PRACA ALCIDES PEREIRA": {
    "original": "BR-RJ-NITEROI-PRACA ALCIDES PEREIRA",
    "mapboxPlaceName": "Praça Alcides Pereira, Ilha Da Conceição, Niterói - Rio de Janeiro, 24050-350, Brazil",
    "city": "Niterói",
    "state": "Rio de Janeiro",
    "stateCode": "RJ",
    "country": "Brazil",
    "countryCode": "BR",
    "coordinates": {
      "longitude": -43.115909,
      "latitude": -22.867638
    },
    "placeType": [
      "address"
    ],
    "confidence": 0.99
  },
  "BR-RJ-PETROPOLIS-ESTRADA DO CARANGOLA 1545": {
    "original": "BR-RJ-PETROPOLIS-ESTRADA DO CARANGOLA 1545",
    "mapboxPlaceName": "Petropolis, Rio de Janeiro, Brazil",
    "city": "Petropolis",
    "state": "Rio de Janeiro",
    "stateCode": "RJ",
    "country": "Brazil",
    "countryCode": "BR",
    "coordinates": {
      "longitude": -43.1789,
      "latitude": -22.5051
    },
    "placeType": [
      "place"
    ],
    "confidence": 1
  },
  "BR-RJ-RIO DE JANEIRO-RETIC-ILHA DO FUNDAO, R.36, 2757": {
    "original": "BR-RJ-RIO DE JANEIRO-RETIC-ILHA DO FUNDAO, R.36, 2757",
    "mapboxPlaceName": "Avenida Ilha Do Fundão, Tauá, Rio de Janeiro - Rio de Janeiro, 21920, Brazil",
    "city": "Rio de Janeiro",
    "state": "Rio de Janeiro",
    "stateCode": "RJ",
    "country": "Brazil",
    "countryCode": "BR",
    "coordinates": {
      "longitude": -43.187958,
      "latitude": -22.788457
    },
    "placeType": [
      "address"
    ],
    "confidence": 0.711212
  },
  "BR-RJ-RIO DE JANEIRO-VENTURA-AV REPUBLICA DO CHILE 330": {
    "original": "BR-RJ-RIO DE JANEIRO-VENTURA-AV REPUBLICA DO CHILE 330",
    "mapboxPlaceName": "Rio de Janeiro, Rio de Janeiro, Brazil",
    "city": "Rio de Janeiro",
    "state": "Rio de Janeiro",
    "stateCode": "RJ",
    "country": "Brazil",
    "countryCode": "BR",
    "coordinates": {
      "longitude": -43.1729,
      "latitude": -22.9068
    },
    "placeType": [
      "place"
    ],
    "confidence": 1
  },
  "BR-SP-CAMPINAS-RODOVIA SP 101, KM 3,8": {
    "original": "BR-SP-CAMPINAS-RODOVIA SP 101, KM 3,8",
    "mapboxPlaceName": "Campinas, São Paulo, Brazil",
    "city": "Campinas",
    "state": "São Paulo",
    "stateCode": "SP",
    "country": "Brazil",
    "countryCode": "BR",
    "coordinates": {
      "longitude": -47.057137,
      "latitude": -22.90286
    },
    "placeType": [
      "place"
    ],
    "confidence": 0.470679
  },
  "Bakersfield, CA": {
    "original": "Bakersfield, CA",
    "mapboxPlaceName": "Bakersfield, California, United States",
    "city": "Bakersfield",
    "state": "California",
    "stateCode": "CA",
    "country": "United States",
    "countryCode": "US",
    "coordinates": {
      "longitude": -119.018926,
      "latitude": 35.374337
    },
    "placeType": [
      "place"
    ],
    "confidence": 1
  },
  "Baku, Azerbaijan": {
    "original": "Baku, Azerbaijan",
    "mapboxPlaceName": "Baku, Azerbaijan",
    "city": "Baku",
    "state": "Baku",
    "stateCode": "BA",
    "country": "Azerbaijan",
    "countryCode": "AZ",
    "coordinates": {
      "longitude": 49.832801,
      "latitude": 40.375589
    },
    "placeType": [
      "region",
      "place"
    ],
    "confidence": 1
  },
  "Baku, Baku City": {
    "original": "Baku, Baku City",
    "mapboxPlaceName": "八堵路, 八南, 205, 暖暖區, 基隆市, Keelung, Taiwan",
    "city": "基隆市",
    "state": "Keelung",
    "stateCode": "KEE",
    "country": "Taiwan",
    "countryCode": "TW",
    "coordinates": {
      "longitude": 121.731096,
      "latitude": 25.108596
    },
    "placeType": [
      "address"
    ],
    "confidence": 0.669167
  },
  "Balikpapan, Indonesia": {
    "city": "Balikpapan",
    "state": "East Kalimantan",
    "stateCode": "KI",
    "country": "Indonesia",
    "countryCode": "ID",
    "coordinates": {
      "latitude": -1.241016,
      "longitude": 116.85976
    },
    "mapboxPlaceName": "Balikpapan, East Kalimantan, Indonesia",
    "confidence": 1
  },
  "Ban Bo Phawong, Nakhon Sawan": {
    "original": "Ban Bo Phawong, Nakhon Sawan",
    "mapboxPlaceName": "ซอยนครสวรรค์ 70, 44000, Mueang Maha Sarakham, Maha Sarakham, Thailand",
    "city": "Mueang Maha Sarakham",
    "state": "Maha Sarakham",
    "stateCode": "44",
    "country": "Thailand",
    "countryCode": "TH",
    "coordinates": {
      "longitude": 103.326886,
      "latitude": 16.166279
    },
    "placeType": [
      "address"
    ],
    "confidence": 0.455556
  },
  "Bangalore, Karnataka, India": {
    "original": "Bangalore, Karnataka, India",
    "mapboxPlaceName": "Bengaluru, Karnataka, India",
    "city": "Bengaluru",
    "state": "Karnataka",
    "stateCode": "KA",
    "country": "India",
    "countryCode": "IN",
    "coordinates": {
      "longitude": 77.591301,
      "latitude": 12.979101
    },
    "placeType": [
      "place"
    ],
    "confidence": 0.986667
  },
  "Bangkok, Bangkok": {
    "original": "Bangkok, Bangkok",
    "mapboxPlaceName": "Bangkok Noi, Bangkok, Thailand",
    "city": "Bangkok Noi",
    "state": null,
    "stateCode": null,
    "country": "Thailand",
    "countryCode": "TH",
    "coordinates": {
      "longitude": 100.4778,
      "latitude": 13.759876
    },
    "placeType": [
      "locality"
    ],
    "confidence": 0.99
  },
  "Bangkok, Thailand": {
    "city": "Bangkok",
    "state": "Bangkok",
    "stateCode": "10",
    "country": "Thailand",
    "countryCode": "TH",
    "coordinates": {
      "latitude": 13.752494,
      "longitude": 100.493509
    },
    "mapboxPlaceName": "Bangkok, Thailand",
    "confidence": 1
  },
  "Bartlesville, OK, US, 74004": {
    "city": "Bartlesville",
    "state": "Oklahoma",
    "stateCode": "OK",
    "country": "United States",
    "countryCode": "US",
    "coordinates": {
      "latitude": 36.745809,
      "longitude": -96.13813
    },
    "mapboxPlaceName": "Bartlesville Road, Bartlesville, Oklahoma 74003, United States",
    "confidence": 0.825
  },
  "Bartlesville, United States": {
    "city": "Bartlesville",
    "state": "Oklahoma",
    "stateCode": "OK",
    "country": "United States",
    "countryCode": "US",
    "coordinates": {
      "latitude": 36.742547,
      "longitude": -95.953409
    },
    "mapboxPlaceName": "Bartlesville, Oklahoma, United States",
    "confidence": 1
  },
  "Basra, Al Başrah, Iraq": {
    "original": "Basra, Al Başrah, Iraq",
    "mapboxPlaceName": "البصرة, Basra, Iraq",
    "city": "البصرة",
    "state": "Basra",
    "stateCode": "BA",
    "country": "Iraq",
    "countryCode": "IQ",
    "coordinates": {
      "longitude": 47.809098,
      "latitude": 30.495237
    },
    "placeType": [
      "place"
    ],
    "confidence": 0.988148
  },
  "Basra, Basra": {
    "original": "Basra, Basra",
    "mapboxPlaceName": "Al Basrah, Basra, Iraq",
    "city": "Al Basrah",
    "state": "Basra",
    "stateCode": "BA",
    "country": "Iraq",
    "countryCode": "IQ",
    "coordinates": {
      "longitude": 47.793478,
      "latitude": 30.515087
    },
    "placeType": [
      "place"
    ],
    "confidence": 0.99
  },
  "Basra, Iraq": {
    "city": null,
    "state": "Basra",
    "stateCode": "BA",
    "country": "Iraq",
    "countryCode": "IQ",
    "coordinates": {
      "latitude": 30.495237,
      "longitude": 47.809098
    },
    "mapboxPlaceName": "Basra, Iraq",
    "confidence": 1
  },
  "Basrah, Iraq": {
    "city": null,
    "state": "Basra",
    "stateCode": "BA",
    "country": "Iraq",
    "countryCode": "IQ",
    "coordinates": {
      "latitude": 30.495237,
      "longitude": 47.809098
    },
    "mapboxPlaceName": "Basra, Iraq",
    "confidence": 0.958333
  },
  "Batangas City, Batangas, Philippines": {
    "city": "Batangas City",
    "state": "Batangas",
    "stateCode": "BTG",
    "country": "Philippines",
    "countryCode": "PH",
    "coordinates": {
      "latitude": 13.756367,
      "longitude": 121.05839
    },
    "mapboxPlaceName": "Batangas City, Batangas, Philippines",
    "confidence": 1
  },
  "Baton Rouge, Louisiana, United States": {
    "city": "Baton Rouge",
    "state": "Louisiana",
    "stateCode": "LA",
    "country": "United States",
    "countryCode": "US",
    "coordinates": {
      "latitude": 30.447224,
      "longitude": -91.186948
    },
    "mapboxPlaceName": "Baton Rouge, Louisiana, United States",
    "confidence": 1
  },
  "Baytown, Texas, United States": {
    "city": "Baytown",
    "state": "Texas",
    "stateCode": "TX",
    "country": "United States",
    "countryCode": "US",
    "coordinates": {
      "latitude": 29.73374,
      "longitude": -94.970372
    },
    "mapboxPlaceName": "Baytown, Texas, United States",
    "confidence": 1
  },
  "Beavercreek Township, Ohio": {
    "original": "Beavercreek Township, Ohio",
    "mapboxPlaceName": "Beavercreek Township, Ohio, United States",
    "city": "Beavercreek Township",
    "state": "Ohio",
    "stateCode": "OH",
    "country": "United States",
    "countryCode": "US",
    "coordinates": {
      "longitude": -84.015631,
      "latitude": 39.712685
    },
    "placeType": [
      "place"
    ],
    "confidence": 1
  },
  "Beavercreek, Ohio": {
    "original": "Beavercreek, Ohio",
    "mapboxPlaceName": "Beavercreek, Ohio, United States",
    "city": "Beavercreek",
    "state": "Ohio",
    "stateCode": "OH",
    "country": "United States",
    "countryCode": "US",
    "coordinates": {
      "longitude": -84.063326,
      "latitude": 39.708454
    },
    "placeType": [
      "place"
    ],
    "confidence": 1
  },
  "Belle Fourche, SD": {
    "original": "Belle Fourche, SD",
    "mapboxPlaceName": "Belle Fourche, South Dakota, United States",
    "city": "Belle Fourche",
    "state": "South Dakota",
    "stateCode": "SD",
    "country": "United States",
    "countryCode": "US",
    "coordinates": {
      "longitude": -103.853616,
      "latitude": 44.671436
    },
    "placeType": [
      "place"
    ],
    "confidence": 1
  },
  "Bellevue, Nebraska": {
    "original": "Bellevue, Nebraska",
    "mapboxPlaceName": "Bellevue, Nebraska, United States",
    "city": "Bellevue",
    "state": "Nebraska",
    "stateCode": "NE",
    "country": "United States",
    "countryCode": "US",
    "coordinates": {
      "longitude": -95.893683,
      "latitude": 41.136482
    },
    "placeType": [
      "place"
    ],
    "confidence": 1
  },
  "Belo Horizonte, Minas Gerais, Brazil": {
    "city": "Belo Horizonte",
    "state": "Minas Gerais",
    "stateCode": "MG",
    "country": "Brazil",
    "countryCode": "BR",
    "coordinates": {
      "latitude": -19.926767,
      "longitude": -43.93934
    },
    "mapboxPlaceName": "Belo Horizonte, Minas Gerais, Brazil",
    "confidence": 1
  },
  "Bengaluru, Karnataka": {
    "original": "Bengaluru, Karnataka",
    "mapboxPlaceName": "Bengaluru, Karnataka, India",
    "city": "Bengaluru",
    "state": "Karnataka",
    "stateCode": "KA",
    "country": "India",
    "countryCode": "IN",
    "coordinates": {
      "longitude": 77.591301,
      "latitude": 12.979101
    },
    "placeType": [
      "place"
    ],
    "confidence": 1
  },
  "Bengaluru, Karnataka, India": {
    "city": "Bengaluru",
    "state": "Karnataka",
    "stateCode": "KA",
    "country": "India",
    "countryCode": "IN",
    "coordinates": {
      "latitude": 12.979101,
      "longitude": 77.591301
    },
    "mapboxPlaceName": "Bengaluru, Karnataka, India",
    "confidence": 1
  },
  "Bethesda-Chevy Chase, Maryland": {
    "original": "Bethesda-Chevy Chase, Maryland",
    "mapboxPlaceName": "Ethan Allen Avenue, Takoma Park, Maryland 20912, United States",
    "city": "Takoma Park",
    "state": "Maryland",
    "stateCode": "MD",
    "country": "United States",
    "countryCode": "US",
    "coordinates": {
      "longitude": -76.999551,
      "latitude": 38.977391
    },
    "placeType": [
      "address"
    ],
    "confidence": 0.638148
  },
  "Billings, Montana, United States": {
    "city": "Billings",
    "state": "Montana",
    "stateCode": "MT",
    "country": "United States",
    "countryCode": "US",
    "coordinates": {
      "latitude": 45.783531,
      "longitude": -108.505384
    },
    "mapboxPlaceName": "Billings, Montana, United States",
    "confidence": 1
  },
  "Birchwood, Cheshire, United Kingdom": {
    "original": "Birchwood, Cheshire, United Kingdom",
    "mapboxPlaceName": "Birchwood, Hatfield, Hertfordshire, England, United Kingdom",
    "city": "Hatfield",
    "state": "England",
    "stateCode": "ENG",
    "country": "United Kingdom",
    "countryCode": "GB",
    "coordinates": {
      "longitude": -0.223679,
      "latitude": 51.770947
    },
    "placeType": [
      "neighborhood"
    ],
    "confidence": 0.703704
  },
  "Bloomfield, New Mexico": {
    "city": "Bloomfield",
    "state": "New Mexico",
    "stateCode": "NM",
    "country": "United States",
    "countryCode": "US",
    "coordinates": {
      "latitude": 36.71337,
      "longitude": -107.979187
    },
    "mapboxPlaceName": "Bloomfield, New Mexico, United States",
    "confidence": 1
  },
  "Bogota, Colombia": {
    "city": "Bogotá",
    "state": "Bogotá",
    "stateCode": "DC",
    "country": "Colombia",
    "countryCode": "CO",
    "coordinates": {
      "latitude": 4.653465,
      "longitude": -74.083645
    },
    "mapboxPlaceName": "Bogotá, Colombia",
    "confidence": 1
  },
  "Bogotá, Capital District, Colombia": {
    "city": "Bogotá",
    "state": "Bogotá",
    "stateCode": "DC",
    "country": "Colombia",
    "countryCode": "CO",
    "coordinates": {
      "latitude": 4.653465,
      "longitude": -74.083645
    },
    "mapboxPlaceName": "Bogotá, Colombia",
    "confidence": 0.592593
  },
  "Bolling AFB, District of Columbia": {
    "original": "Bolling AFB, District of Columbia",
    "mapboxPlaceName": "Bolling AFB, District of Columbia, United States",
    "city": "Bolling AFB",
    "state": "District of Columbia",
    "stateCode": "DC",
    "country": "United States",
    "countryCode": "US",
    "coordinates": {
      "longitude": -77.019496,
      "latitude": 38.840337
    },
    "placeType": [
      "place"
    ],
    "confidence": 1
  },
  "Bossier City, LA": {
    "original": "Bossier City, LA",
    "mapboxPlaceName": "Bossier City, Louisiana, United States",
    "city": "Bossier City",
    "state": "Louisiana",
    "stateCode": "LA",
    "country": "United States",
    "countryCode": "US",
    "coordinates": {
      "longitude": -93.732226,
      "latitude": 32.515791
    },
    "placeType": [
      "place"
    ],
    "confidence": 1
  },
  "Bowmanville, Ontario, Canada": {
    "city": "Bowmanville",
    "state": "Ontario",
    "stateCode": "ON",
    "country": "Canada",
    "countryCode": "CA",
    "coordinates": {
      "latitude": 43.91182,
      "longitude": -78.68758
    },
    "mapboxPlaceName": "Bowmanville, Ontario, Canada",
    "confidence": 1
  },
  "Bridgeport, West Virginia": {
    "city": "Bridgeport",
    "state": "West Virginia",
    "stateCode": "WV",
    "country": "United States",
    "countryCode": "US",
    "coordinates": {
      "latitude": 39.286652,
      "longitude": -80.256066
    },
    "mapboxPlaceName": "Bridgeport, West Virginia, United States",
    "confidence": 1
  },
  "Brisbane, Australia": {
    "city": "Brisbane",
    "state": "Queensland",
    "stateCode": "QLD",
    "country": "Australia",
    "countryCode": "AU",
    "coordinates": {
      "latitude": -27.469099,
      "longitude": 153.0277
    },
    "mapboxPlaceName": "Brisbane, Queensland, Australia",
    "confidence": 1
  },
  "Brisbane, QLD": {
    "city": "Brisbane",
    "state": "Queensland",
    "stateCode": "QLD",
    "country": "Australia",
    "countryCode": "AU",
    "coordinates": {
      "latitude": -27.469099,
      "longitude": 153.0277
    },
    "mapboxPlaceName": "Brisbane, Queensland, Australia",
    "confidence": 0.5
  },
  "Brisbane, Queensland, Australia": {
    "original": "Brisbane, Queensland, Australia",
    "mapboxPlaceName": "Brisbane, Queensland, Australia",
    "city": "Brisbane",
    "state": "Queensland",
    "stateCode": "QLD",
    "country": "Australia",
    "countryCode": "AU",
    "coordinates": {
      "longitude": 153.0277,
      "latitude": -27.469099
    },
    "placeType": [
      "place"
    ],
    "confidence": 1
  },
  "Broussard, Lafayette, LA": {
    "original": "Broussard, Lafayette, LA",
    "mapboxPlaceName": "Broussard, Maurice, Louisiana 70555, United States",
    "city": "Maurice",
    "state": "Louisiana",
    "stateCode": "LA",
    "country": "United States",
    "countryCode": "US",
    "coordinates": {
      "longitude": -92.123878,
      "latitude": 30.106824
    },
    "placeType": [
      "address"
    ],
    "confidence": 0.833333
  },
  "Bucharest, București": {
    "original": "Bucharest, București",
    "mapboxPlaceName": "Șoseaua București-Ploiești, Bucharest 13686, Romania",
    "city": "Bucharest",
    "state": null,
    "stateCode": null,
    "country": "Romania",
    "countryCode": "RO",
    "coordinates": {
      "longitude": 26.081852,
      "latitude": 44.509575
    },
    "placeType": [
      "address"
    ],
    "confidence": 0.99
  },
  "Bucharest, Romania": {
    "city": "Bucharest",
    "state": "Bucharest",
    "stateCode": "B",
    "country": "Romania",
    "countryCode": "RO",
    "coordinates": {
      "latitude": 44.436141,
      "longitude": 26.10272
    },
    "mapboxPlaceName": "Bucharest, Romania",
    "confidence": 1
  },
  "Buenos Aires BASSC Madero Office": {
    "city": "Claypole",
    "state": "Buenos Aires Province",
    "stateCode": "B",
    "country": "Argentina",
    "countryCode": "AR",
    "coordinates": {
      "latitude": -34.798881,
      "longitude": -58.330961
    },
    "mapboxPlaceName": "Madero, Claypole, Buenos Aires Province, B1849, Argentina",
    "confidence": 0.71963
  },
  "Buenos Aires, Argentina": {
    "city": "Buenos Aires",
    "state": "Buenos Aires",
    "stateCode": "C",
    "country": "Argentina",
    "countryCode": "AR",
    "coordinates": {
      "latitude": -34.607568,
      "longitude": -58.437089
    },
    "mapboxPlaceName": "Buenos Aires, Argentina",
    "confidence": 1
  },
  "Buenos Aires, Buenos Aires Province, Argentina": {
    "city": "Mar de Ajó",
    "state": "Buenos Aires Province",
    "stateCode": "B",
    "country": "Argentina",
    "countryCode": "AR",
    "coordinates": {
      "latitude": -36.703904,
      "longitude": -56.681355
    },
    "mapboxPlaceName": "Buenos Aires, Mar de Ajó, Buenos Aires Province, B7109, Argentina",
    "confidence": 1
  },
  "Buenos Aires, Buenos Aires, Argentina": {
    "city": "Mar de Ajó",
    "state": "Buenos Aires Province",
    "stateCode": "B",
    "country": "Argentina",
    "countryCode": "AR",
    "coordinates": {
      "latitude": -36.703904,
      "longitude": -56.681355
    },
    "mapboxPlaceName": "Buenos Aires, Mar de Ajó, Buenos Aires Province, B7109, Argentina",
    "confidence": 1
  },
  "Bulger, Pennsylvania": {
    "city": "Bulger",
    "state": "Pennsylvania",
    "stateCode": "PA",
    "country": "United States",
    "countryCode": "US",
    "coordinates": {
      "latitude": 40.378434,
      "longitude": -80.327767
    },
    "mapboxPlaceName": "Bulger, Pennsylvania, United States",
    "confidence": 1
  },
  "CA-AB-CALGARY-4839 90TH AVENUE SE": {
    "original": "CA-AB-CALGARY-4839 90TH AVENUE SE",
    "mapboxPlaceName": "Calgary, Alberta, Canada",
    "city": "Calgary",
    "state": "Alberta",
    "stateCode": "AB",
    "country": "Canada",
    "countryCode": "CA",
    "coordinates": {
      "longitude": -114.0719,
      "latitude": 51.0447
    },
    "placeType": [
      "place"
    ],
    "confidence": 1
  },
  "CA-AB-CALGARY-6820 36 STREET SE": {
    "original": "CA-AB-CALGARY-6820 36 STREET SE",
    "mapboxPlaceName": "6820 36 Street SE, Calgary, Alberta T2C 2G4, Canada",
    "city": "Calgary",
    "state": "Alberta",
    "stateCode": "AB",
    "country": "Canada",
    "countryCode": "CA",
    "coordinates": {
      "longitude": -113.981249,
      "latitude": 50.993304
    },
    "placeType": [
      "address"
    ],
    "confidence": 0.99
  },
  "CA-AB-CALGARY-GULF CANADA SQUARE": {
    "original": "CA-AB-CALGARY-GULF CANADA SQUARE",
    "mapboxPlaceName": "Calgary, Alberta, Canada",
    "city": "Calgary",
    "state": "Alberta",
    "stateCode": "AB",
    "country": "Canada",
    "countryCode": "CA",
    "coordinates": {
      "longitude": -114.067955,
      "latitude": 51.0457
    },
    "placeType": [
      "place"
    ],
    "confidence": 0.99
  },
  "CA-AB-FORT MCMURRAY-# 3, 360 MACKENZIE BLVD.": {
    "original": "CA-AB-FORT MCMURRAY-# 3, 360 MACKENZIE BLVD.",
    "mapboxPlaceName": "360 Mackenzie Boulevard, Fort McMurray, Alberta T9H 4C4, Canada",
    "city": "Fort McMurray",
    "state": "Alberta",
    "stateCode": "AB",
    "country": "Canada",
    "countryCode": "CA",
    "coordinates": {
      "longitude": -111.333694,
      "latitude": 56.666935
    },
    "placeType": [
      "address"
    ],
    "confidence": 0.99
  },
  "CA-AB-LEDUC-3905-71 AVENUE": {
    "original": "CA-AB-LEDUC-3905-71 AVENUE",
    "mapboxPlaceName": "Leduc, Alberta, Canada",
    "city": "Leduc",
    "state": "Alberta",
    "stateCode": "AB",
    "country": "Canada",
    "countryCode": "CA",
    "coordinates": {
      "longitude": -113.55032,
      "latitude": 53.26476
    },
    "placeType": [
      "place"
    ],
    "confidence": 0.673333
  },
  "CA-AB-LEDUC-7018 45 STREET": {
    "original": "CA-AB-LEDUC-7018 45 STREET",
    "mapboxPlaceName": "7018 45 Street, Leduc, Alberta T9E 7E7, Canada",
    "city": "Leduc",
    "state": "Alberta",
    "stateCode": "AB",
    "country": "Canada",
    "countryCode": "CA",
    "coordinates": {
      "longitude": -113.537795,
      "latitude": 53.292181
    },
    "placeType": [
      "address"
    ],
    "confidence": 0.99
  },
  "CA-AB-LEDUC-7020 45 STREET": {
    "original": "CA-AB-LEDUC-7020 45 STREET",
    "mapboxPlaceName": "7020 45 Street, Leduc, Alberta T9E 7E7, Canada",
    "city": "Leduc",
    "state": "Alberta",
    "stateCode": "AB",
    "country": "Canada",
    "countryCode": "CA",
    "coordinates": {
      "longitude": -113.539191,
      "latitude": 53.293011
    },
    "placeType": [
      "address"
    ],
    "confidence": 0.99
  },
  "CA-AB-OTHER ALBERTA": {
    "original": "CA-AB-OTHER ALBERTA",
    "mapboxPlaceName": "Alberta Avenue, Edmonton, Alberta, Canada",
    "city": "Edmonton",
    "state": "Alberta",
    "stateCode": "AB",
    "country": "Canada",
    "countryCode": "CA",
    "coordinates": {
      "longitude": -113.487274,
      "latitude": 53.570396
    },
    "placeType": [
      "neighborhood"
    ],
    "confidence": 0.74
  },
  "CA-MB-VIRDEN-190 COMMONWEALTH DR": {
    "original": "CA-MB-VIRDEN-190 COMMONWEALTH DR",
    "mapboxPlaceName": "190 Commonwealth Dr, Virden, Manitoba R0M 2C0, Canada",
    "city": "Virden",
    "state": "Manitoba",
    "stateCode": "MB",
    "country": "Canada",
    "countryCode": "CA",
    "coordinates": {
      "longitude": -100.918532,
      "latitude": 49.861761
    },
    "placeType": [
      "address"
    ],
    "confidence": 0.99
  },
  "CA-QC-OTHER QUEBEC": {
    "original": "CA-QC-OTHER QUEBEC",
    "mapboxPlaceName": "Québec, Quebec, Canada",
    "city": "Québec",
    "state": "Quebec",
    "stateCode": "QC",
    "country": "Canada",
    "countryCode": "CA",
    "coordinates": {
      "longitude": -71.20278,
      "latitude": 46.812187
    },
    "placeType": [
      "place"
    ],
    "confidence": 0.74
  },
  "CG-POINTE NOIRE-64 AVENUE JEAN MARIE MAVOUNGGOU": {
    "original": "CG-POINTE NOIRE-64 AVENUE JEAN MARIE MAVOUNGGOU",
    "mapboxPlaceName": "Pointe-Noire, Pointe-Noire, Republic of the Congo",
    "city": "Pointe-Noire",
    "state": "Pointe-Noire",
    "stateCode": "16",
    "country": "Republic of the Congo",
    "countryCode": "CG",
    "coordinates": {
      "longitude": 11.85492,
      "latitude": -4.795098
    },
    "placeType": [
      "place"
    ],
    "confidence": 0.527037
  },
  "CH-OTHER SWITZERLAND": {
    "original": "CH-OTHER SWITZERLAND",
    "mapboxPlaceName": "Chemin De L'école, 2812 Movelier, Switzerland",
    "city": "Movelier",
    "state": "Jura",
    "stateCode": "JU",
    "country": "Switzerland",
    "countryCode": "CH",
    "coordinates": {
      "longitude": 7.317207,
      "latitude": 47.410882
    },
    "placeType": [
      "address"
    ],
    "confidence": 0.666667
  },
  "CM-DOUALA-PLATEAUX JOSS , DERRIERE HOTEL LA FALAISE BONANJO": {
    "city": "Douala",
    "state": "Littoral",
    "stateCode": null,
    "country": "Cameroon",
    "countryCode": "CM",
    "coordinates": {
      "latitude": 4.0511,
      "longitude": 9.7679
    },
    "mapboxPlaceName": "Douala, Cameroon",
    "confidence": 0.8
  },
  "CM-Littoral-Douala-Villa No 117, Rue 1074": {
    "city": "Douala",
    "state": "Littoral",
    "stateCode": null,
    "country": "Cameroon",
    "countryCode": "CM",
    "coordinates": {
      "latitude": 4.0511,
      "longitude": 9.7679
    },
    "mapboxPlaceName": "Douala, Cameroon",
    "confidence": 0.8
  },
  "CM-OTHER CAMEROON": {
    "city": null,
    "state": null,
    "stateCode": null,
    "country": "Cameroon",
    "countryCode": "CM",
    "coordinates": {
      "latitude": 4.0511,
      "longitude": 9.7679
    },
    "mapboxPlaceName": "Cameroon, Cameroon",
    "confidence": 0.8
  },
  "CN-BEIJING-12 TAIYANGGONG MIDDLE RD, CHAOYANG DISTRICT": {
    "city": "Beijing",
    "state": "Beijing",
    "stateCode": null,
    "country": "China",
    "countryCode": "CN",
    "coordinates": {
      "latitude": 39.9042,
      "longitude": 116.4074
    },
    "mapboxPlaceName": "Beijing, China",
    "confidence": 0.9
  },
  "CN-CHENGDU-MAOYE PLAZA, DONGYU ST, JINJIANG DISTRICT": {
    "city": "Chengdu",
    "state": "Sichuan",
    "stateCode": null,
    "country": "China",
    "countryCode": "CN",
    "coordinates": {
      "latitude": 39.9042,
      "longitude": 116.4074
    },
    "mapboxPlaceName": "Chengdu, China",
    "confidence": 0.8
  },
  "CN-CHENGDU-WEST HI-TECH ZONE, 3 XIXIN AVENUE": {
    "original": "CN-CHENGDU-WEST HI-TECH ZONE, 3 XIXIN AVENUE",
    "mapboxPlaceName": "Hainan, China",
    "city": null,
    "state": "Hainan",
    "stateCode": "HI",
    "country": "China",
    "countryCode": "CN",
    "coordinates": {
      "longitude": 109.650098,
      "latitude": 19.179524
    },
    "placeType": [
      "region"
    ],
    "confidence": 0.459136
  },
  "CN-OTHER CHINA": {
    "city": null,
    "state": null,
    "stateCode": null,
    "country": "China",
    "countryCode": "CN",
    "coordinates": {
      "latitude": 39.9042,
      "longitude": 116.4074
    },
    "mapboxPlaceName": "China, China",
    "confidence": 0.8
  },
  "CN-OTHER SHANDONG": {
    "original": "CN-OTHER SHANDONG",
    "mapboxPlaceName": "Shandong, China",
    "city": null,
    "state": "Shandong",
    "stateCode": "SD",
    "country": "China",
    "countryCode": "CN",
    "coordinates": {
      "longitude": 118.196748,
      "latitude": 35.989453
    },
    "placeType": [
      "region"
    ],
    "confidence": 0.656667
  },
  "CN-SHANGHAI-1, HUA TUO RD.": {
    "original": "CN-SHANGHAI-1, HUA TUO RD.",
    "mapboxPlaceName": "Shanghai, China",
    "city": "Shanghai",
    "state": "Shanghai",
    "stateCode": "SH",
    "country": "China",
    "countryCode": "CN",
    "coordinates": {
      "longitude": 121.469207,
      "latitude": 31.232276
    },
    "placeType": [
      "region",
      "place"
    ],
    "confidence": 0.508519
  },
  "CN-SHENYANG-NO. 268-1 QINGNIAN ROAD SHENHE DISTRICT UNIT 1508, FLOOR 14 ELEVATOR FLOOR 15A": {
    "city": "Shenyang",
    "state": "Liaoning",
    "stateCode": null,
    "country": "China",
    "countryCode": "CN",
    "coordinates": {
      "latitude": 39.9042,
      "longitude": 116.4074
    },
    "mapboxPlaceName": "Shenyang, China",
    "confidence": 0.8
  },
  "CN-SHENZHEN-7/F CHIWAN PETROLEUM BLDG SHEKOU": {
    "original": "CN-SHENZHEN-7/F CHIWAN PETROLEUM BLDG SHEKOU",
    "mapboxPlaceName": "Shenzhen Shi, Guangdong, China",
    "city": "Shenzhen Shi",
    "state": "Guangdong",
    "stateCode": "GD",
    "country": "China",
    "countryCode": "CN",
    "coordinates": {
      "longitude": 114.05471,
      "latitude": 22.535383
    },
    "placeType": [
      "place"
    ],
    "confidence": 0.471481
  },
  "CN-SUZHOU-81 SUHONG ZHONG ROAD": {
    "original": "CN-SUZHOU-81 SUHONG ZHONG ROAD",
    "mapboxPlaceName": "Sihong Xian, Suqian Shi, Jiangsu, China",
    "city": "Sihong Xian",
    "state": "Jiangsu",
    "stateCode": "JS",
    "country": "China",
    "countryCode": "CN",
    "coordinates": {
      "longitude": 118.21341,
      "latitude": 33.48214
    },
    "placeType": [
      "locality"
    ],
    "confidence": 0.50466
  },
  "CN-TIANJIN-# 1 JIXIU BASE HARBOR ECONOMIC AREA": {
    "original": "CN-TIANJIN-# 1 JIXIU BASE HARBOR ECONOMIC AREA",
    "mapboxPlaceName": "Tianjin, China",
    "city": "Tianjin",
    "state": "Tianjin",
    "stateCode": "TJ",
    "country": "China",
    "countryCode": "CN",
    "coordinates": {
      "longitude": 117.195107,
      "latitude": 39.085674
    },
    "placeType": [
      "region",
      "place"
    ],
    "confidence": 0.471481
  },
  "CN-Xinjiang-Urumqi-China (Xinjiang) Pilot Free Trade Zone, No. 7187 Dongping Ave., Sanping Farm, Toutunhe District": {
    "original": "CN-Xinjiang-Urumqi-China (Xinjiang) Pilot Free Trade Zone, No. 7187 Dongping Ave., Sanping Farm, Toutunhe District",
    "mapboxPlaceName": "Xinjiang, China",
    "city": null,
    "state": "Xinjiang",
    "stateCode": "XJ",
    "country": "China",
    "countryCode": "CN",
    "coordinates": {
      "longitude": 85.377889,
      "latitude": 40.728272
    },
    "placeType": [
      "region"
    ],
    "confidence": 0.422658
  },
  "CO-BARRANCABERMEJA-Km 11 Vereda los Laureles via al Centro": {
    "original": "CO-BARRANCABERMEJA-Km 11 Vereda los Laureles via al Centro",
    "mapboxPlaceName": "Los Laureles, Puerto Rondón, Arauca, Colombia",
    "city": "Los Laureles",
    "state": "Arauca",
    "stateCode": "ARA",
    "country": "Colombia",
    "countryCode": "CO",
    "coordinates": {
      "longitude": -70.743505,
      "latitude": 6.315896
    },
    "placeType": [
      "locality"
    ],
    "confidence": 0.493704
  },
  "CO-BOGOTA-CARRERA 7 NO 123-35": {
    "original": "CO-BOGOTA-CARRERA 7 NO 123-35",
    "mapboxPlaceName": "Bogota, Colombia",
    "city": "Bogota",
    "state": "Bogota D.C.",
    "stateCode": null,
    "country": "Colombia",
    "countryCode": "CO",
    "coordinates": {
      "longitude": -74.0721,
      "latitude": 4.711
    },
    "placeType": [
      "place"
    ],
    "confidence": 1
  },
  "CO-NEIVA-CALLE 40 # 7P-400 COND. INDUS.": {
    "original": "CO-NEIVA-CALLE 40 # 7P-400 COND. INDUS.",
    "mapboxPlaceName": "Neiva, Huila, Colombia",
    "city": "Neiva",
    "state": "Huila",
    "stateCode": "HUI",
    "country": "Colombia",
    "countryCode": "CO",
    "coordinates": {
      "longitude": -75.287346,
      "latitude": 2.929432
    },
    "placeType": [
      "place"
    ],
    "confidence": 0.471481
  },
  "CO-Villavicencio-Vereda San Luis de Ocoa. Kilometro 5.7 via Acacias margen izquierda": {
    "original": "CO-Villavicencio-Vereda San Luis de Ocoa. Kilometro 5.7 via Acacias margen izquierda",
    "mapboxPlaceName": "San Luis, Tolima, Colombia",
    "city": "San Luis",
    "state": "Tolima",
    "stateCode": "TOL",
    "country": "Colombia",
    "countryCode": "CO",
    "coordinates": {
      "longitude": -75.09422,
      "latitude": 4.133857
    },
    "placeType": [
      "place"
    ],
    "confidence": 0.462934
  },
  "CO-YOPAL-CALLE 28N NO. 2A-45": {
    "original": "CO-YOPAL-CALLE 28N NO. 2A-45",
    "mapboxPlaceName": "Yopal, Casanare, Colombia",
    "city": "Yopal",
    "state": "Casanare",
    "stateCode": "CAS",
    "country": "Colombia",
    "countryCode": "CO",
    "coordinates": {
      "longitude": -72.39384,
      "latitude": 5.335702
    },
    "placeType": [
      "place"
    ],
    "confidence": 0.487354
  },
  "CZ-DOUDLEVCE-PILSEN-EDVARDA BENESE 564/39": {
    "original": "CZ-DOUDLEVCE-PILSEN-EDVARDA BENESE 564/39",
    "mapboxPlaceName": "Edvarda Beneše 564/39, 30100 Plzeň, Plzeň, Czech Republic",
    "city": "Plzeň",
    "state": "Plzeň",
    "stateCode": "32",
    "country": "Czech Republic",
    "countryCode": "CZ",
    "coordinates": {
      "longitude": 13.380444,
      "latitude": 49.721108
    },
    "placeType": [
      "address"
    ],
    "confidence": 0.778519
  },
  "Cadiz, Ohio": {
    "city": "Cadiz",
    "state": "Ohio",
    "stateCode": "OH",
    "country": "United States",
    "countryCode": "US",
    "coordinates": {
      "latitude": 40.272866,
      "longitude": -80.997048
    },
    "mapboxPlaceName": "Cadiz, Ohio, United States",
    "confidence": 1
  },
  "Cairo, Cairo Governorate": {
    "original": "Cairo, Cairo Governorate",
    "mapboxPlaceName": "Cairo, Cairo, Egypt",
    "city": "Cairo",
    "state": "Cairo",
    "stateCode": "C",
    "country": "Egypt",
    "countryCode": "EG",
    "coordinates": {
      "longitude": 31.241106,
      "latitude": 30.047558
    },
    "placeType": [
      "place"
    ],
    "confidence": 0.666667
  },
  "Cairo, Cairo, Egypt": {
    "city": "Cairo",
    "state": "Cairo",
    "stateCode": "C",
    "country": "Egypt",
    "countryCode": "EG",
    "coordinates": {
      "latitude": 30.047558,
      "longitude": 31.241106
    },
    "mapboxPlaceName": "Cairo, Cairo, Egypt",
    "confidence": 1
  },
  "Cairo, Egypt": {
    "city": "Cairo",
    "state": "Cairo",
    "stateCode": "C",
    "country": "Egypt",
    "countryCode": "EG",
    "coordinates": {
      "latitude": 30.047558,
      "longitude": 31.241106
    },
    "mapboxPlaceName": "Cairo, Cairo, Egypt",
    "confidence": 1
  },
  "Calgary, AB": {
    "city": "Calgary",
    "state": "Alberta",
    "stateCode": "AB",
    "country": "Canada",
    "countryCode": "CA",
    "coordinates": {
      "latitude": 51.0457,
      "longitude": -114.067955
    },
    "mapboxPlaceName": "Calgary, Alberta, Canada",
    "confidence": 1
  },
  "Calgary, Alberta": {
    "original": "Calgary, Alberta",
    "mapboxPlaceName": "Calgary, Alberta, Canada",
    "city": "Calgary",
    "state": "Alberta",
    "stateCode": "AB",
    "country": "Canada",
    "countryCode": "CA",
    "coordinates": {
      "longitude": -114.067955,
      "latitude": 51.0457
    },
    "placeType": [
      "place"
    ],
    "confidence": 1
  },
  "Calgary, Alberta, Canada": {
    "city": "Calgary",
    "state": "Alberta",
    "stateCode": "AB",
    "country": "Canada",
    "countryCode": "CA",
    "coordinates": {
      "latitude": 51.0457,
      "longitude": -114.067955
    },
    "mapboxPlaceName": "Calgary, Alberta, Canada",
    "confidence": 1
  },
  "Calgary, Canada": {
    "city": "Calgary",
    "state": "Alberta",
    "stateCode": "AB",
    "country": "Canada",
    "countryCode": "CA",
    "coordinates": {
      "latitude": 51.0457,
      "longitude": -114.067955
    },
    "mapboxPlaceName": "Calgary, Alberta, Canada",
    "confidence": 1
  },
  "Cambridge -US, United States": {
    "city": "Cambridge",
    "state": "Ohio",
    "stateCode": "OH",
    "country": "United States",
    "countryCode": "US",
    "coordinates": {
      "latitude": 40.025535,
      "longitude": -81.505369
    },
    "mapboxPlaceName": "East Pike Road, Cambridge, Ohio 43725, United States",
    "confidence": 0.841852
  },
  "Cameron, Louisiana, United States": {
    "city": "Cameron",
    "state": "Louisiana",
    "stateCode": "LA",
    "country": "United States",
    "countryCode": "US",
    "coordinates": {
      "latitude": 29.797404,
      "longitude": -93.325413
    },
    "mapboxPlaceName": "Cameron, Louisiana, United States",
    "confidence": 1
  },
  "Camp HM Smith, Hawaii": {
    "original": "Camp HM Smith, Hawaii",
    "mapboxPlaceName": "Camp Hill, Pennsylvania, United States",
    "city": "Camp Hill",
    "state": "Pennsylvania",
    "stateCode": "PA",
    "country": "United States",
    "countryCode": "US",
    "coordinates": {
      "longitude": -76.919736,
      "latitude": 40.240005
    },
    "placeType": [
      "place"
    ],
    "confidence": 0.464286
  },
  "Camp Lejeune, North Carolina": {
    "original": "Camp Lejeune, North Carolina",
    "mapboxPlaceName": "Camp Lejeune, North Carolina, United States",
    "city": "Camp Lejeune",
    "state": "North Carolina",
    "stateCode": "NC",
    "country": "United States",
    "countryCode": "US",
    "coordinates": {
      "longitude": -77.354603,
      "latitude": 34.660802
    },
    "placeType": [
      "place"
    ],
    "confidence": 1
  },
  "Campeche, Campeche, Mexico": {
    "city": "Campeche",
    "state": "Campeche",
    "stateCode": "CAM",
    "country": "Mexico",
    "countryCode": "MX",
    "coordinates": {
      "latitude": 19.871505,
      "longitude": -90.493187
    },
    "mapboxPlaceName": "Calle Campeche, 24023 Campeche, Campeche, Mexico",
    "confidence": 1
  },
  "Campeche, Mexico": {
    "city": "Campeche",
    "state": "Campeche",
    "stateCode": "CAM",
    "country": "Mexico",
    "countryCode": "MX",
    "coordinates": {
      "latitude": 19.838362,
      "longitude": -90.51832
    },
    "mapboxPlaceName": "Campeche, Campeche, Mexico",
    "confidence": 1
  },
  "Campina, Romania": {
    "city": "Câmpina",
    "state": "Prahova",
    "stateCode": "PH",
    "country": "Romania",
    "countryCode": "RO",
    "coordinates": {
      "latitude": 45.123917,
      "longitude": 25.73504
    },
    "mapboxPlaceName": "Câmpina, Prahova, Romania",
    "confidence": 1
  },
  "Canberra, Australian Capital Territory, Australia": {
    "original": "Canberra, Australian Capital Territory, Australia",
    "mapboxPlaceName": "Canberra, Australian Capital Territory, Australia",
    "city": "Canberra",
    "state": "Australian Capital Territory",
    "stateCode": "ACT",
    "country": "Australia",
    "countryCode": "AU",
    "coordinates": {
      "longitude": 149.12927,
      "latitude": -35.279522
    },
    "placeType": [
      "place"
    ],
    "confidence": 1
  },
  "Cannon AFB, New Mexico": {
    "original": "Cannon AFB, New Mexico",
    "mapboxPlaceName": "Cannon AFB, New Mexico, United States",
    "city": "Cannon AFB",
    "state": "New Mexico",
    "stateCode": "NM",
    "country": "United States",
    "countryCode": "US",
    "coordinates": {
      "longitude": -103.33285,
      "latitude": 34.39673
    },
    "placeType": [
      "locality"
    ],
    "confidence": 1
  },
  "Canonsburg, PA": {
    "original": "Canonsburg, PA",
    "mapboxPlaceName": "Canonsburg, Pennsylvania, United States",
    "city": "Canonsburg",
    "state": "Pennsylvania",
    "stateCode": "PA",
    "country": "United States",
    "countryCode": "US",
    "coordinates": {
      "longitude": -80.186497,
      "latitude": 40.258839
    },
    "placeType": [
      "place"
    ],
    "confidence": 1
  },
  "Canonsburg, Pennsylvania": {
    "city": "Canonsburg",
    "state": "Pennsylvania",
    "stateCode": "PA",
    "country": "United States",
    "countryCode": "US",
    "coordinates": {
      "latitude": 40.258839,
      "longitude": -80.186497
    },
    "mapboxPlaceName": "Canonsburg, Pennsylvania, United States",
    "confidence": 1
  },
  "Canton, Ohio": {
    "city": "Canton",
    "state": "Ohio",
    "stateCode": "OH",
    "country": "United States",
    "countryCode": "US",
    "coordinates": {
      "latitude": 40.798812,
      "longitude": -81.376542
    },
    "mapboxPlaceName": "Canton, Ohio, United States",
    "confidence": 1
  },
  "Capital District, Colombia": {
    "city": "Victoria",
    "state": "British Columbia",
    "stateCode": "BC",
    "country": "Canada",
    "countryCode": "CA",
    "coordinates": {
      "latitude": 48.48525,
      "longitude": -123.330478
    },
    "mapboxPlaceName": "Columbia Drive, Victoria, British Columbia V8N 4P5, Canada",
    "confidence": 0.848565
  },
  "Carlsbad NM": {
    "city": "Carlsbad",
    "state": "New Mexico",
    "stateCode": "NM",
    "country": "United States",
    "countryCode": "US",
    "coordinates": {
      "latitude": 32.420338,
      "longitude": -104.229069
    },
    "mapboxPlaceName": "Carlsbad, New Mexico, United States",
    "confidence": 1
  },
  "Carlsbad, California": {
    "original": "Carlsbad, California",
    "mapboxPlaceName": "Carlsbad, California, United States",
    "city": "Carlsbad",
    "state": "California",
    "stateCode": "CA",
    "country": "United States",
    "countryCode": "US",
    "coordinates": {
      "longitude": -117.348712,
      "latitude": 33.1596
    },
    "placeType": [
      "place"
    ],
    "confidence": 1
  },
  "Carlsbad, New Mexico": {
    "city": "Carlsbad",
    "state": "New Mexico",
    "stateCode": "NM",
    "country": "United States",
    "countryCode": "US",
    "coordinates": {
      "latitude": 32.420338,
      "longitude": -104.229069
    },
    "mapboxPlaceName": "Carlsbad, New Mexico, United States",
    "confidence": 1
  },
  "Carlsbad, New Mexico, United States of America": {
    "city": "Carlsbad",
    "state": "New Mexico",
    "stateCode": "NM",
    "country": "United States",
    "countryCode": "US",
    "coordinates": {
      "latitude": 32.420338,
      "longitude": -104.229069
    },
    "mapboxPlaceName": "Carlsbad, New Mexico, United States",
    "confidence": 1
  },
  "Cary, North Carolina": {
    "city": "Cary",
    "state": "North Carolina",
    "stateCode": "NC",
    "country": "United States",
    "countryCode": "US",
    "coordinates": {
      "latitude": 35.789988,
      "longitude": -78.781165
    },
    "mapboxPlaceName": "Cary, North Carolina, United States",
    "confidence": 1
  },
  "Casper, Wyoming": {
    "city": "Casper",
    "state": "Wyoming",
    "stateCode": "WY",
    "country": "United States",
    "countryCode": "US",
    "coordinates": {
      "latitude": 42.850082,
      "longitude": -106.325188
    },
    "mapboxPlaceName": "Casper, Wyoming, United States",
    "confidence": 1
  },
  "Catlettsburg, Kentucky": {
    "city": "Catlettsburg",
    "state": "Kentucky",
    "stateCode": "KY",
    "country": "United States",
    "countryCode": "US",
    "coordinates": {
      "latitude": 38.40356,
      "longitude": -82.600939
    },
    "mapboxPlaceName": "Catlettsburg, Kentucky, United States",
    "confidence": 1
  },
  "Catu, Brazil": {
    "city": "Catu",
    "state": "Bahia",
    "stateCode": "BA",
    "country": "Brazil",
    "countryCode": "BR",
    "coordinates": {
      "latitude": -12.352513,
      "longitude": -38.376232
    },
    "mapboxPlaceName": "Catu, Bahia, Brazil",
    "confidence": 1
  },
  "Central Singapore, SG": {
    "city": "Singapore",
    "state": "Central Singapore Community Development Council",
    "stateCode": "01",
    "country": "Singapore",
    "countryCode": "SG",
    "coordinates": {
      "latitude": 1.33559,
      "longitude": 103.844203
    },
    "mapboxPlaceName": "Central Singapore Community Development Council, Singapore",
    "confidence": 1
  },
  "Chantilly, Virginia": {
    "original": "Chantilly, Virginia",
    "mapboxPlaceName": "Chantilly, Virginia, United States",
    "city": "Chantilly",
    "state": "Virginia",
    "stateCode": "VA",
    "country": "United States",
    "countryCode": "US",
    "coordinates": {
      "longitude": -77.428645,
      "latitude": 38.896239
    },
    "placeType": [
      "place"
    ],
    "confidence": 1
  },
  "Charleston, South Carolina": {
    "original": "Charleston, South Carolina",
    "mapboxPlaceName": "Charleston, South Carolina, United States",
    "city": "Charleston",
    "state": "South Carolina",
    "stateCode": "SC",
    "country": "United States",
    "countryCode": "US",
    "coordinates": {
      "longitude": -79.938628,
      "latitude": 32.789284
    },
    "placeType": [
      "place"
    ],
    "confidence": 1
  },
  "Charlotte, North Carolina": {
    "city": "Charlotte",
    "state": "North Carolina",
    "stateCode": "NC",
    "country": "United States",
    "countryCode": "US",
    "coordinates": {
      "latitude": 35.227207,
      "longitude": -80.84309
    },
    "mapboxPlaceName": "Charlotte, North Carolina, United States",
    "confidence": 1
  },
  "Chatuchak, Bangkok": {
    "original": "Chatuchak, Bangkok",
    "mapboxPlaceName": "Chatuchak, Bangkok, Thailand",
    "city": "Chatuchak",
    "state": null,
    "stateCode": null,
    "country": "Thailand",
    "countryCode": "TH",
    "coordinates": {
      "longitude": 100.55173,
      "latitude": 13.802195
    },
    "placeType": [
      "locality"
    ],
    "confidence": 1
  },
  "Chengdu, Sichuan": {
    "original": "Chengdu, Sichuan",
    "mapboxPlaceName": "Chengdu Shi, Sichuan, China",
    "city": "Chengdu Shi",
    "state": "Sichuan",
    "stateCode": "SC",
    "country": "China",
    "countryCode": "CN",
    "coordinates": {
      "longitude": 104.07872,
      "latitude": 30.659126
    },
    "placeType": [
      "place"
    ],
    "confidence": 1
  },
  "Chennai, Tamil Nadu, India": {
    "original": "Chennai, Tamil Nadu, India",
    "mapboxPlaceName": "Chennai, Tamil Nadu, India",
    "city": "Chennai",
    "state": "Tamil Nadu",
    "stateCode": "TN",
    "country": "India",
    "countryCode": "IN",
    "coordinates": {
      "longitude": 80.2427,
      "latitude": 13.050513
    },
    "placeType": [
      "place"
    ],
    "confidence": 1
  },
  "Cherry Point, North Carolina": {
    "original": "Cherry Point, North Carolina",
    "mapboxPlaceName": "Cherry Pt, Havelock, North Carolina 28532, United States",
    "city": "Havelock",
    "state": "North Carolina",
    "stateCode": "NC",
    "country": "United States",
    "countryCode": "US",
    "coordinates": {
      "longitude": -76.895922,
      "latitude": 34.90742
    },
    "placeType": [
      "address"
    ],
    "confidence": 1
  },
  "Chile": {
    "city": null,
    "state": null,
    "stateCode": null,
    "country": "Chile",
    "countryCode": "CL",
    "coordinates": {
      "latitude": -26.783346,
      "longitude": -69.761008
    },
    "mapboxPlaceName": "Chile",
    "confidence": 1
  },
  "Christchurch, Cantebury, New Zealand": {
    "city": "Christchurch",
    "state": "Canterbury",
    "stateCode": "CAN",
    "country": "New Zealand",
    "countryCode": "NZ",
    "coordinates": {
      "latitude": -43.533516,
      "longitude": 172.63503
    },
    "mapboxPlaceName": "Christchurch, Canterbury, New Zealand",
    "confidence": 0.983539
  },
  "Cikarang, Indonesia": {
    "city": "Karawang",
    "state": "West Java",
    "stateCode": "JB",
    "country": "Indonesia",
    "countryCode": "ID",
    "coordinates": {
      "latitude": -6.263649,
      "longitude": 107.54838
    },
    "mapboxPlaceName": "Cikarang, 41386, Cilamaya Wetan, Karawang, West Java, Indonesia",
    "confidence": 1
  },
  "Circleville, Ohio": {
    "original": "Circleville, Ohio",
    "mapboxPlaceName": "Circleville, Ohio, United States",
    "city": "Circleville",
    "state": "Ohio",
    "stateCode": "OH",
    "country": "United States",
    "countryCode": "US",
    "coordinates": {
      "longitude": -82.945099,
      "latitude": 39.601887
    },
    "placeType": [
      "place"
    ],
    "confidence": 1
  },
  "Ciudad General Martín Miguel de Güemes, Buenos Aires": {
    "original": "Ciudad General Martín Miguel de Güemes, Buenos Aires",
    "mapboxPlaceName": "General Martín Miguel De Güemes, Magdalena, Buenos Aires Province, B1913, Argentina",
    "city": "Magdalena",
    "state": "Buenos Aires Province",
    "stateCode": "B",
    "country": "Argentina",
    "countryCode": "AR",
    "coordinates": {
      "longitude": -57.501712,
      "latitude": -35.08203
    },
    "placeType": [
      "address"
    ],
    "confidence": 1
  },
  "Ciudad de Mexico (CDMX), Mexico": {
    "city": "Mexico City",
    "state": null,
    "stateCode": null,
    "country": "Mexico",
    "countryCode": "MX",
    "coordinates": {
      "latitude": 19.324121,
      "longitude": -98.96303
    },
    "mapboxPlaceName": "Avenida Ciudad De México, 13120 Mexico City, Mexico",
    "confidence": 0.90963
  },
  "Ciudad del Carmen, Campeche": {
    "original": "Ciudad del Carmen, Campeche",
    "mapboxPlaceName": "Ciudad del Carmen, Campeche, Mexico",
    "city": "Ciudad del Carmen",
    "state": "Campeche",
    "stateCode": "CAM",
    "country": "Mexico",
    "countryCode": "MX",
    "coordinates": {
      "longitude": -91.81502,
      "latitude": 18.651733
    },
    "placeType": [
      "place"
    ],
    "confidence": 1
  },
  "Ciudad del Carmen, Mexico": {
    "city": "Ciudad del Carmen",
    "state": "Campeche",
    "stateCode": "CAM",
    "country": "Mexico",
    "countryCode": "MX",
    "coordinates": {
      "latitude": 18.651733,
      "longitude": -91.81502
    },
    "mapboxPlaceName": "Ciudad del Carmen, Campeche, Mexico",
    "confidence": 1
  },
  "Clairmont, Alberta": {
    "original": "Clairmont, Alberta",
    "mapboxPlaceName": "Clairmont, Alberta, Canada",
    "city": "Clairmont",
    "state": "Alberta",
    "stateCode": "AB",
    "country": "Canada",
    "countryCode": "CA",
    "coordinates": {
      "longitude": -118.79181,
      "latitude": 55.257866
    },
    "placeType": [
      "place"
    ],
    "confidence": 1
  },
  "Clairmont, Canada": {
    "city": "Clairmont",
    "state": "Alberta",
    "stateCode": "AB",
    "country": "Canada",
    "countryCode": "CA",
    "coordinates": {
      "latitude": 55.257866,
      "longitude": -118.79181
    },
    "mapboxPlaceName": "Clairmont, Alberta, Canada",
    "confidence": 1
  },
  "Clearwater, Florida": {
    "original": "Clearwater, Florida",
    "mapboxPlaceName": "Clearwater, Florida, United States",
    "city": "Clearwater",
    "state": "Florida",
    "stateCode": "FL",
    "country": "United States",
    "countryCode": "US",
    "coordinates": {
      "longitude": -82.801662,
      "latitude": 27.962345
    },
    "placeType": [
      "place"
    ],
    "confidence": 1
  },
  "Clovis, New Mexico": {
    "original": "Clovis, New Mexico",
    "mapboxPlaceName": "Clovis, New Mexico, United States",
    "city": "Clovis",
    "state": "New Mexico",
    "stateCode": "NM",
    "country": "United States",
    "countryCode": "US",
    "coordinates": {
      "longitude": -103.205364,
      "latitude": 34.404687
    },
    "placeType": [
      "place"
    ],
    "confidence": 1
  },
  "Coca, Provincia del Azuay": {
    "original": "Coca, Provincia del Azuay",
    "mapboxPlaceName": "Coya, Cuenca - Azuay, 0101, Ecuador",
    "city": "Cuenca",
    "state": "Azuay",
    "stateCode": "A",
    "country": "Ecuador",
    "countryCode": "EC",
    "coordinates": {
      "longitude": -78.980095,
      "latitude": -2.89459
    },
    "placeType": [
      "address"
    ],
    "confidence": 0.555556
  },
  "Coimbatore, India": {
    "city": "Coimbatore",
    "state": "Tamil Nadu",
    "stateCode": "TN",
    "country": "India",
    "countryCode": "IN",
    "coordinates": {
      "latitude": 11.006775,
      "longitude": 76.957886
    },
    "mapboxPlaceName": "Coimbatore, Tamil Nadu, India",
    "confidence": 1
  },
  "Colombia": {
    "city": null,
    "state": null,
    "stateCode": null,
    "country": "Colombia",
    "countryCode": "CO",
    "coordinates": {
      "latitude": 3.065088,
      "longitude": -73.129056
    },
    "mapboxPlaceName": "Colombia",
    "confidence": 1
  },
  "Colorado Springs, Colorado": {
    "original": "Colorado Springs, Colorado",
    "mapboxPlaceName": "Colorado Springs, Colorado, United States",
    "city": "Colorado Springs",
    "state": "Colorado",
    "stateCode": "CO",
    "country": "United States",
    "countryCode": "US",
    "coordinates": {
      "longitude": -104.821879,
      "latitude": 38.83242
    },
    "placeType": [
      "place"
    ],
    "confidence": 1
  },
  "Columbia, Maryland": {
    "original": "Columbia, Maryland",
    "mapboxPlaceName": "Columbia, Maryland, United States",
    "city": "Columbia",
    "state": "Maryland",
    "stateCode": "MD",
    "country": "United States",
    "countryCode": "US",
    "coordinates": {
      "longitude": -76.855986,
      "latitude": 39.214717
    },
    "placeType": [
      "place"
    ],
    "confidence": 1
  },
  "Conroe, TX": {
    "original": "Conroe, TX",
    "mapboxPlaceName": "Conroe, Texas, United States",
    "city": "Conroe",
    "state": "Texas",
    "stateCode": "TX",
    "country": "United States",
    "countryCode": "US",
    "coordinates": {
      "longitude": -95.457056,
      "latitude": 30.313046
    },
    "placeType": [
      "place"
    ],
    "confidence": 1
  },
  "Corniche, Al Khobar, Eastern Region, Saudi Arabia": {
    "original": "Corniche, Al Khobar, Eastern Region, Saudi Arabia",
    "mapboxPlaceName": "Al Khubar, Eastern, Saudi Arabia",
    "city": "Al Khubar",
    "state": "Eastern",
    "stateCode": "04",
    "country": "Saudi Arabia",
    "countryCode": "SA",
    "coordinates": {
      "longitude": 50.21324,
      "latitude": 26.289223
    },
    "placeType": [
      "place"
    ],
    "confidence": 0.723492
  },
  "Corpus Christi, Texas": {
    "original": "Corpus Christi, Texas",
    "mapboxPlaceName": "Corpus Christi, Texas, United States",
    "city": "Corpus Christi",
    "state": "Texas",
    "stateCode": "TX",
    "country": "United States",
    "countryCode": "US",
    "coordinates": {
      "longitude": -97.403291,
      "latitude": 27.763557
    },
    "placeType": [
      "place"
    ],
    "confidence": 1
  },
  "Cota, Colombia": {
    "city": "Cota",
    "state": "Cundinamarca",
    "stateCode": "CUN",
    "country": "Colombia",
    "countryCode": "CO",
    "coordinates": {
      "latitude": 4.809546,
      "longitude": -74.101685
    },
    "mapboxPlaceName": "Cota, Cundinamarca, Colombia",
    "confidence": 1
  },
  "Crane, Indiana": {
    "original": "Crane, Indiana",
    "mapboxPlaceName": "Crane, Indiana, United States",
    "city": "Crane",
    "state": "Indiana",
    "stateCode": "IN",
    "country": "United States",
    "countryCode": "US",
    "coordinates": {
      "longitude": -86.904188,
      "latitude": 38.891136
    },
    "placeType": [
      "place"
    ],
    "confidence": 1
  },
  "Cumbria": {
    "original": "Cumbria",
    "mapboxPlaceName": "Cumbria, England, United Kingdom",
    "city": null,
    "state": "England",
    "stateCode": "ENG",
    "country": "United Kingdom",
    "countryCode": "GB",
    "coordinates": {
      "longitude": -2.703756,
      "latitude": 54.849808
    },
    "placeType": [
      "district"
    ],
    "confidence": 1
  },
  "Cunduacán, Tabasco": {
    "original": "Cunduacán, Tabasco",
    "mapboxPlaceName": "Cunduacán, Tabasco, Mexico",
    "city": "Cunduacán",
    "state": "Tabasco",
    "stateCode": "TAB",
    "country": "Mexico",
    "countryCode": "MX",
    "coordinates": {
      "longitude": -93.17306,
      "latitude": 18.066618
    },
    "placeType": [
      "place"
    ],
    "confidence": 1
  },
  "DE-BW-STUTENSEE-LORENZSTRASSE 10": {
    "original": "DE-BW-STUTENSEE-LORENZSTRASSE 10",
    "mapboxPlaceName": "Lorenzstraße 10, 76297 Stutensee, Germany",
    "city": "Stutensee",
    "state": "Baden-Württemberg",
    "stateCode": "BW",
    "country": "Germany",
    "countryCode": "DE",
    "coordinates": {
      "longitude": 8.455257,
      "latitude": 49.073286
    },
    "placeType": [
      "address"
    ],
    "confidence": 0.99
  },
  "DE-CELLE-BAKER-HUGHES-STRASSE 1": {
    "original": "DE-CELLE-BAKER-HUGHES-STRASSE 1",
    "mapboxPlaceName": "Baker-Hughes-Straße 1, 29221 Celle, Germany",
    "city": "Celle",
    "state": "Lower Saxony",
    "stateCode": "NI",
    "country": "Germany",
    "countryCode": "DE",
    "coordinates": {
      "longitude": 10.102727,
      "latitude": 52.60697
    },
    "placeType": [
      "address"
    ],
    "confidence": 1
  },
  "DE-HESSE-FRANKFURT-DARMSTADTER LANDSTRASSE 116": {
    "original": "DE-HESSE-FRANKFURT-DARMSTADTER LANDSTRASSE 116",
    "mapboxPlaceName": "Darmstädter Landstraße 116, 60598 Frankfurt am Main, Germany",
    "city": "Frankfurt am Main",
    "state": "Hesse",
    "stateCode": "HE",
    "country": "Germany",
    "countryCode": "DE",
    "coordinates": {
      "longitude": 8.689864,
      "latitude": 50.094785
    },
    "placeType": [
      "address"
    ],
    "confidence": 0.99
  },
  "DE-HH-AHRENSBURG-BOGENSTRASSE 41": {
    "original": "DE-HH-AHRENSBURG-BOGENSTRASSE 41",
    "mapboxPlaceName": "Bogenstraße 41, 22926 Ahrensburg, Germany",
    "city": "Ahrensburg",
    "state": "Schleswig-Holstein",
    "stateCode": "SH",
    "country": "Germany",
    "countryCode": "DE",
    "coordinates": {
      "longitude": 10.230916,
      "latitude": 53.664592
    },
    "placeType": [
      "address"
    ],
    "confidence": 0.762222
  },
  "DE-NI-WUNSTORF-NIELS-BOHR-STR. 7": {
    "original": "DE-NI-WUNSTORF-NIELS-BOHR-STR. 7",
    "mapboxPlaceName": "Niels-Bohr-Straße 7, 31515 Wunstorf, Germany",
    "city": "Wunstorf",
    "state": "Lower Saxony",
    "stateCode": "NI",
    "country": "Germany",
    "countryCode": "DE",
    "coordinates": {
      "longitude": 9.459395,
      "latitude": 52.411864
    },
    "placeType": [
      "address"
    ],
    "confidence": 0.99
  },
  "DE-NW-HURTH-ROBERT-BOSCH-STRASSE 3": {
    "original": "DE-NW-HURTH-ROBERT-BOSCH-STRASSE 3",
    "mapboxPlaceName": "Robert-Bosch-Straße 3, 50354 Hürth, Germany",
    "city": "Hürth",
    "state": "North Rhine-Westphalia",
    "stateCode": "NW",
    "country": "Germany",
    "countryCode": "DE",
    "coordinates": {
      "longitude": 6.90357,
      "latitude": 50.88721
    },
    "placeType": [
      "address"
    ],
    "confidence": 0.99
  },
  "DE-OTHER GERMANY": {
    "original": "DE-OTHER GERMANY",
    "mapboxPlaceName": "Düsseldorf, North Rhine-Westphalia, Germany",
    "city": "Düsseldorf",
    "state": "North Rhine-Westphalia",
    "stateCode": "NW",
    "country": "Germany",
    "countryCode": "DE",
    "coordinates": {
      "longitude": 6.773766,
      "latitude": 51.22615
    },
    "placeType": [
      "place"
    ],
    "confidence": 0.666667
  },
  "DFSP Craney Island, USA, Portsmouth, Building 84, 4501 Cedar Lane, Virginia": {
    "original": "DFSP Craney Island, USA, Portsmouth, Building 84, 4501 Cedar Lane, Virginia",
    "mapboxPlaceName": "4501 Cedar Lane, Portsmouth, Virginia 23703, United States",
    "city": "Portsmouth",
    "state": "Virginia",
    "stateCode": "VA",
    "country": "United States",
    "countryCode": "US",
    "coordinates": {
      "longitude": -76.374462,
      "latitude": 36.883404
    },
    "placeType": [
      "address"
    ],
    "confidence": 0.962963
  },
  "DZ-OTHER ALGERIA": {
    "original": "DZ-OTHER ALGERIA",
    "mapboxPlaceName": "Rn 44, 36, Bouteldja, El Tarf, Algeria",
    "city": "Bouteldja",
    "state": "El Tarf",
    "stateCode": "36",
    "country": "Algeria",
    "countryCode": "DZ",
    "coordinates": {
      "longitude": 8.201722,
      "latitude": 36.789435
    },
    "placeType": [
      "address"
    ],
    "confidence": 0.656667
  },
  "Dahlgren, Virginia": {
    "original": "Dahlgren, Virginia",
    "mapboxPlaceName": "Dahlgren, Virginia, United States",
    "city": "Dahlgren",
    "state": "Virginia",
    "stateCode": "VA",
    "country": "United States",
    "countryCode": "US",
    "coordinates": {
      "longitude": -77.051562,
      "latitude": 38.336326
    },
    "placeType": [
      "place"
    ],
    "confidence": 1
  },
  "Dammam, SA": {
    "city": "Ad Dammam",
    "state": "Eastern",
    "stateCode": "04",
    "country": "Saudi Arabia",
    "countryCode": "SA",
    "coordinates": {
      "latitude": 26.4344,
      "longitude": 50.0982
    },
    "mapboxPlaceName": "Ad Dammam, Eastern, Saudi Arabia",
    "confidence": 1
  },
  "Dammam, Saudi Arabia": {
    "city": "Ad Dammam",
    "state": "Eastern",
    "stateCode": "04",
    "country": "Saudi Arabia",
    "countryCode": "SA",
    "coordinates": {
      "latitude": 26.4344,
      "longitude": 50.0982
    },
    "mapboxPlaceName": "Ad Dammam, Eastern, Saudi Arabia",
    "confidence": 1
  },
  "Das Island, Abu Dhabi, United Arab Emirates": {
    "city": "Das Island",
    "state": "Abu Dhabi",
    "stateCode": "AZ",
    "country": "United Arab Emirates",
    "countryCode": "AE",
    "coordinates": {
      "latitude": 25.142366,
      "longitude": 52.87732
    },
    "mapboxPlaceName": "Das Island, Abu Dhabi, United Arab Emirates",
    "confidence": 1
  },
  "Davis, CA, US": {
    "city": "Davis",
    "state": "California",
    "stateCode": "CA",
    "country": "United States",
    "countryCode": "US",
    "coordinates": {
      "latitude": 38.543559,
      "longitude": -121.738961
    },
    "mapboxPlaceName": "Davis, California, United States",
    "confidence": 1
  },
  "Dayton, Ohio": {
    "original": "Dayton, Ohio",
    "mapboxPlaceName": "Dayton, Ohio, United States",
    "city": "Dayton",
    "state": "Ohio",
    "stateCode": "OH",
    "country": "United States",
    "countryCode": "US",
    "coordinates": {
      "longitude": -84.19637,
      "latitude": 39.758781
    },
    "placeType": [
      "place"
    ],
    "confidence": 1
  },
  "Dehradun, India": {
    "city": "Dehradun",
    "state": "Uttarakhand",
    "stateCode": "UT",
    "country": "India",
    "countryCode": "IN",
    "coordinates": {
      "latitude": 30.320742,
      "longitude": 78.04099
    },
    "mapboxPlaceName": "Dehradun, Uttarakhand, India",
    "confidence": 1
  },
  "Denver CO": {
    "city": "Denver",
    "state": "Colorado",
    "stateCode": "CO",
    "country": "United States",
    "countryCode": "US",
    "coordinates": {
      "latitude": 39.741681,
      "longitude": -104.986109
    },
    "mapboxPlaceName": "Denver, Colorado, United States",
    "confidence": 1
  },
  "Denver, CO, US, 80237": {
    "city": "Denver",
    "state": "Colorado",
    "stateCode": "CO",
    "country": "United States",
    "countryCode": "US",
    "coordinates": {
      "latitude": 39.598312,
      "longitude": -105.08586
    },
    "mapboxPlaceName": "80237 South Allison Street, Denver, Colorado 80123, United States",
    "confidence": 0.812569
  },
  "Denver, Colorado": {
    "original": "Denver, Colorado",
    "mapboxPlaceName": "Denver, Colorado, United States",
    "city": "Denver",
    "state": "Colorado",
    "stateCode": "CO",
    "country": "United States",
    "countryCode": "US",
    "coordinates": {
      "longitude": -104.986109,
      "latitude": 39.741681
    },
    "placeType": [
      "place"
    ],
    "confidence": 1
  },
  "Denver, Colorado, United States": {
    "city": "Denver",
    "state": "Colorado",
    "stateCode": "CO",
    "country": "United States",
    "countryCode": "US",
    "coordinates": {
      "latitude": 39.741681,
      "longitude": -104.986109
    },
    "mapboxPlaceName": "Denver, Colorado, United States",
    "confidence": 1
  },
  "Detroit, Michigan": {
    "city": "Detroit",
    "state": "Michigan",
    "stateCode": "MI",
    "country": "United States",
    "countryCode": "US",
    "coordinates": {
      "latitude": 42.331397,
      "longitude": -83.046217
    },
    "mapboxPlaceName": "Detroit, Michigan, United States",
    "confidence": 1
  },
  "Dhahran, Saudi Arabia": {
    "city": "Al Khubar",
    "state": "Eastern",
    "stateCode": "04",
    "country": "Saudi Arabia",
    "countryCode": "SA",
    "coordinates": {
      "latitude": 26.287895,
      "longitude": 50.183478
    },
    "mapboxPlaceName": "Dhahran Road, Al Khubar, Eastern, Saudi Arabia",
    "confidence": 0.914815
  },
  "Dickinson, North Dakota": {
    "city": "Dickinson",
    "state": "North Dakota",
    "stateCode": "ND",
    "country": "United States",
    "countryCode": "US",
    "coordinates": {
      "latitude": 46.878838,
      "longitude": -102.787074
    },
    "mapboxPlaceName": "Dickinson, North Dakota, United States",
    "confidence": 1
  },
  "Diego Garcia, British Indian Ocean Territory": {
    "original": "Diego Garcia, British Indian Ocean Territory",
    "mapboxPlaceName": "Diego Garcia, British Indian Ocean Territory",
    "city": "Diego Garcia",
    "state": "British Indian Ocean Territory",
    "stateCode": null,
    "country": "British Indian Ocean Territory",
    "countryCode": "IO",
    "coordinates": {
      "longitude": 72.452513,
      "latitude": -7.349017
    },
    "placeType": [
      "place"
    ],
    "confidence": 1
  },
  "Djibouti, Djibouti": {
    "original": "Djibouti, Djibouti",
    "mapboxPlaceName": "Djibouti, Djibouti",
    "city": "Djibouti",
    "state": "Djibouti",
    "stateCode": "DJ",
    "country": "Djibouti",
    "countryCode": "DJ",
    "coordinates": {
      "longitude": 43.147272,
      "latitude": 11.59369
    },
    "placeType": [
      "region",
      "place"
    ],
    "confidence": 1
  },
  "Doha, Ad Dawhah, Qatar": {
    "city": "Doha",
    "state": null,
    "stateCode": null,
    "country": "Qatar",
    "countryCode": "QA",
    "coordinates": {
      "latitude": 25.324813,
      "longitude": 51.472905
    },
    "mapboxPlaceName": "Doha, مدينة خليفة الشمالية, Doha, Qatar",
    "confidence": 0.983704
  },
  "Doha, Qatar": {
    "city": "Doha",
    "state": "Doha",
    "stateCode": "DA",
    "country": "Qatar",
    "countryCode": "QA",
    "coordinates": {
      "latitude": 25.285633,
      "longitude": 51.526416
    },
    "mapboxPlaceName": "Doha, Qatar",
    "confidence": 1
  },
  "Dubai, AE": {
    "original": "Dubai, AE",
    "mapboxPlaceName": "طريق دبي - العين, Al Rowaiyah Second, Dubai, Dubai, United Arab Emirates",
    "city": "Dubai",
    "state": "Dubai",
    "stateCode": "DU",
    "country": "United Arab Emirates",
    "countryCode": "AE",
    "coordinates": {
      "longitude": 55.387623,
      "latitude": 25.093105
    },
    "placeType": [
      "address"
    ],
    "confidence": 0.9375
  },
  "Dubai, United Arab Emirates": {
    "original": "Dubai, United Arab Emirates",
    "mapboxPlaceName": "Dubai, Dubai, United Arab Emirates",
    "city": "Dubai",
    "state": "Dubai",
    "stateCode": "DU",
    "country": "United Arab Emirates",
    "countryCode": "AE",
    "coordinates": {
      "longitude": 55.297558,
      "latitude": 25.25809
    },
    "placeType": [
      "place"
    ],
    "confidence": 1
  },
  "Duliajan, India": {
    "city": "Duliajan",
    "state": "Assam",
    "stateCode": "AS",
    "country": "India",
    "countryCode": "IN",
    "coordinates": {
      "latitude": 27.356844,
      "longitude": 95.32032
    },
    "mapboxPlaceName": "Duliajan, Tengakhat, Dibrugarh, Assam, India",
    "confidence": 1
  },
  "Duluth, Georgia": {
    "city": "Duluth",
    "state": "Georgia",
    "stateCode": "GA",
    "country": "United States",
    "countryCode": "US",
    "coordinates": {
      "latitude": 34.001993,
      "longitude": -84.143511
    },